# id flight phase time msl_altitude indicated_airspeed vertical_airspeed tas heading course pitch_attitude roll_attitude eng_1_rpm vertical_acceleration longitudinal_acceleration lateral_acceleration oat groundspeed latitude longitude nav_1_freq nav_2_freq obs_1 fuel_quantity_left_main fuel_quantity_right_main eng_1_fuel_flow eng_1_oil_press eng_1_oil_temp eng_1_cht_1 eng_1_cht_2 eng_1_cht_3 eng_1_cht_4 eng_1_egt_1 eng_1_egt_2 eng_1_egt_3 eng_1_egt_4 system_1_volts system_2_volts system_1_amps system_2_amps
#min 4.59745e+07 15438 0 0 826.4 -0.86 -1814.39 0 0 0.2 -6.75 -47.96 676.7 0 -0.42 -0.17 -4.8 0 47.8773 -97.2099 108.4 116.2 71 14.83 16.36 1.12 50.14 119.18 159.46 148.81 161.55 155.72 898.49 921.88 887.73 867.38 24 23.9 -14 -3
#max 4.59805e+07 15438 2.22507e-308 6.009e+06 3685.6 121.22 1433.9 122 359.9 360 21.9 44.99 2588.7 2.22507e-308 0.45 0.17 2.8 135.5 48.0291 2.22507e-308 114.3 116.2 297 23.87 23.94 16.03 72.19 151.3 357.74 345.08 346.47 336.92 1522.7 1530.24 1525.29 1547.2 28.2 28.3 17.6 1.1
#avg 4.59775e+07 15438 0 2.99786e+06 1828.16 61.8386 -0.488663 62.6114 222.595 199.119 2.88216 0.355953 1792.36 0 0.003633 -0.00103535 -1.09545 62.4971 47.9585 -96.9802 114.165 116.2 109.819 19.4977 20.5616 6.76837 63.3113 138.911 290.243 269.278 286.483 273.039 1232.75 1228.45 1220.91 1228.84 27.9634 28.0047 0.991684 0.0376599
#dev 1485 0 0 1.49826e+06 896.887 42.5688 184.22 43.164 97.7191 93.1162 1.95125 2.58255 615.982 0 0.0338234 0.0135915 1.80038 41.0692 0.0187604 0.23909 0.263983 4.95959e-12 59.1186 2.17063 1.5112 3.8309 5.83961 7.89072 22.1495 22.4727 20.1342 27.2074 146.74 151.921 153.571 153.244 0.382342 0.372659 0.82984 0.0986161
#min delta 1 0 0 1 -31.1 -22.46 -619.49 -21 -359.7 -358.9 -14.18 -10.75 -446.2 0 -0.44 -0.25 -0.3 -4.45 -0.0010299 -0.0013123 -5.9 0 -191 -0.49 -0.39 -3.3 -6.77 -0.2 -1.47 -1.61 -1.43 -1.52 -35.76 -44.81 -46.2 -60.93 -1.8 -1.8 -8 -1.8
#max delta 1 2.22507e-308 2.22507e-308 3000 42.7 24.67 525.17 24 359.4 359.3 3.76 9.99 933.7 2.22507e-308 0.51 0.21 0.3 5.27 0.0006752 0.0016251 5.9 2.22507e-308 221.2 0.41 0.4 9.36 13.38 0.37 1.8 1.66 1.49 1.53 75.19 82.68 82.7 93.93 3.8 3.8 29.8 2.4
#avg delta 1 0 0 1011.95 0.00190236 3.55122e-19 0.00169529 0 0.00106061 0.0150842 0.000146465 5.05051e-06 -0.0773737 0 1.6835e-06 1.6835e-06 -0.00020202 0 -5.32997e-08 5.39394e-08 0.000993266 0 -0.032138 -0.00103704 -0.000850168 -0.000284512 -0.00141919 0.00113973 0.0186801 0.0190623 0.0195724 0.0166498 -0.0173973 -0.00735185 -0.0144461 -0.0186246 -0.000454545 -0.000454545 -0.00111111 -0.000117845
#dev delta 2 0 0 2023.91 3.06272 0.386822 47.0014 0.386532 2.59562 1.97321 0.31387 0.561864 15.961 0 0.0286552 0.0123053 0.00985757 0.395848 0.00011653 0.00031484 0.00595893 0 0.204861 0.0359952 0.0349531 0.106172 0.337723 0.0335231 0.201856 0.20384 0.186863 0.193166 2.95108 2.45758 2.7368 2.81743 0.0424057 0.050747 0.160467 0.0511086
 45974514 15438 0 0 827.50 0.00 -13.42 0.00 353.00 266.40 3.0100 0.1800 1159.40 0.000 0.000 0.000 1.20 0.000 47.9482689 -97.1724777 108.400 116.200 266.8 23.050 21.970 2.920 59.96 125.750 159.46 148.81 161.55 155.72 1018.69 1003.88 1001.86 1044.55 28.10 28.20 5.80 0.70
 45974515 15438 0 1 827.50 0.00 -13.42 0.00 353.00 266.40 3.0000 0.1600 1164.70 0.000 -0.010 0.000 1.20 0.000 47.9482689 -97.1724777 108.400 116.200 266.8 23.050 22.020 2.940 60.13 125.750 159.50 148.81 161.60 155.77 1018.89 1004.08 1001.87 1044.55 28.10 28.20 5.80 0.70
 45974516 15438 0 1000 827.50 0.00 10.19 0.00 353.00 266.40 2.9900 0.1600 1204.90 0.000 0.030 0.010 1.20 0.000 47.9482689 -97.1724777 108.400 116.200 266.8 23.030 21.970 3.010 60.99 125.710 160.08 149.17 162.02 156.13 1023.61 1006.47 1004.23 1043.47 28.10 28.10 5.80 0.70
 45974517 15438 0 2000 827.70 0.00 29.51 0.00 353.00 266.40 2.9600 0.1800 1212.20 0.000 -0.030 0.000 1.20 0.000 47.9482651 -97.1724777 108.400 116.200 266.8 23.030 21.970 3.040 60.98 125.660 160.59 149.58 162.48 156.43 1029.84 1009.07 1009.69 1042.75 28.10 28.10 5.60 0.60
 45974518 15438 0 3000 827.10 0.00 8.29 0.00 353.00 266.40 2.9800 0.1800 1215.40 0.000 0.000 0.000 1.20 0.000 47.9482689 -97.1724777 108.400 116.200 266.8 23.030 21.880 3.050 61.14 125.620 161.11 149.94 162.90 156.79 1036.61 1011.83 1015.79 1043.30 28.10 28.10 5.70 0.60
 45974519 15438 0 4000 826.80 0.00 4.29 0.00 353.00 266.40 2.9900 0.2300 1216.30 0.000 0.050 0.000 1.20 0.000 47.9482651 -97.1724777 108.400 116.200 266.8 23.050 21.880 3.100 61.06 125.580 161.79 150.42 163.50 157.27 1042.16 1015.06 1021.69 1044.26 28.10 28.20 5.70 0.60
 45974520 15438 0 5000 826.50 0.00 10.89 0.00 353.00 266.40 2.9200 0.2000 1215.80 0.000 -0.010 0.000 1.20 0.000 47.9482651 -97.1724777 108.400 116.200 266.8 23.030 21.880 3.030 61.12 125.530 162.35 150.90 163.97 157.65 1046.59 1018.34 1026.26 1044.70 28.10 28.20 5.70 0.60
 45974521 15438 0 6000 826.40 0.00 -5.76 0.00 352.90 266.40 2.8900 0.1600 1211.20 0.000 0.010 0.000 1.20 0.000 47.9482689 -97.1724777 108.400 116.200 266.8 23.050 21.880 3.040 61.05 125.470 162.90 151.30 164.42 158.00 1049.76 1020.81 1030.27 1045.74 28.10 28.20 5.60 0.60
 45974522 15438 0 7000 827.80 0.00 -28.74 0.00 353.00 266.40 2.8700 0.2100 1217.00 0.000 0.010 0.000 1.20 0.000 47.9482651 -97.1724777 108.400 116.200 266.8 23.050 21.880 3.020 61.17 125.430 163.46 151.71 164.90 158.39 1052.21 1023.83 1033.21 1047.00 28.10 28.10 5.50 0.60
 45974523 15438 0 8000 827.60 0.00 -45.09 0.00 352.80 266.40 2.9000 0.1300 1216.00 0.000 0.010 0.000 1.20 0.000 47.9482651 -97.1724777 108.400 116.200 266.8 23.050 21.920 3.020 61.24 125.380 164.04 152.13 165.38 158.76 1056.42 1025.82 1034.65 1048.61 28.10 28.10 5.50 0.60
 45974524 15438 0 9000 828.60 0.00 -14.96 0.00 352.90 266.40 2.8100 0.1800 1219.60 0.000 -0.020 0.000 1.20 0.000 47.9482651 -97.1724777 108.400 116.200 266.8 23.030 21.880 3.100 61.15 125.320 164.61 152.57 165.86 159.18 1059.96 1027.24 1037.88 1050.51 28.10 28.10 5.50 0.60
 45974525 15438 0 11000 828.10 0.00 15.75 0.00 352.80 266.40 2.7600 0.1500 1224.30 0.000 -0.010 0.000 1.20 0.000 47.9482651 -97.1724777 108.400 116.200 266.8 23.030 21.920 3.060 61.15 125.270 165.30 153.13 166.46 159.66 1063.52 1027.65 1040.38 1051.70 28.10 28.20 5.50 0.60
 45974526 15438 0 11001 828.30 0.00 18.34 0.00 352.90 266.40 2.8000 0.1900 1230.40 0.000 0.020 0.000 1.20 0.000 47.9482651 -97.1724777 108.400 116.200 266.8 23.030 21.920 3.070 61.33 125.210 165.92 153.60 167.00 160.10 1065.89 1029.96 1043.25 1053.81 28.10 28.20 5.50 0.60
 45974527 15438 0 12000 830.50 0.00 31.16 0.00 352.90 266.40 2.7900 0.1900 1233.50 0.000 -0.010 -0.010 1.20 0.000 47.9482651 -97.1724625 108.400 116.200 266.8 23.030 21.970 3.090 61.25 125.160 166.53 154.02 167.53 160.50 1068.46 1032.71 1045.87 1056.27 28.10 28.10 5.40 0.60
 45974528 15438 0 13000 830.60 0.00 16.64 0.00 352.90 266.40 2.8300 0.1800 1234.20 0.000 0.030 0.000 1.20 0.000 47.9482651 -97.1724625 108.400 116.200 266.8 23.030 21.970 3.050 61.36 125.100 167.24 154.59 168.13 161.04 1070.99 1034.58 1049.68 1059.23 28.10 28.10 5.40 0.60
 45974529 15438 0 14000 828.00 0.00 -10.72 0.00 352.90 266.40 2.8100 0.2100 1237.20 0.000 0.000 0.000 1.20 0.000 47.9482651 -97.1724625 108.400 116.200 266.8 23.030 21.970 2.970 61.19 125.050 167.77 154.98 168.57 161.38 1073.39 1036.58 1052.49 1060.33 28.10 28.20 5.30 0.50
 45974530 15438 0 15000 828.00 0.00 -15.81 0.00 352.80 266.40 2.8000 0.1600 1237.80 0.000 0.010 -0.010 1.20 0.000 47.9482651 -97.1724625 108.400 116.200 266.8 23.030 22.020 2.930 61.27 124.980 168.37 155.43 169.07 161.78 1078.90 1038.10 1055.21 1060.48 28.10 28.20 5.40 0.60
 45974531 15438 0 16000 829.80 0.00 7.21 0.00 352.90 266.40 2.7700 0.1900 1237.60 0.000 -0.010 0.000 1.20 0.000 47.9482651 -97.1724625 108.400 116.200 266.8 23.050 22.020 2.950 61.33 124.930 169.10 156.01 169.70 162.34 1083.56 1040.88 1059.83 1062.49 28.10 28.20 5.30 0.50
 45974532 15438 0 17000 831.20 0.00 9.40 0.00 352.90 266.40 2.7500 0.1900 1239.60 0.000 -0.030 0.010 1.20 0.000 47.9482651 -97.1724625 108.400 116.200 266.8 23.030 22.020 2.830 61.38 124.870 169.75 156.47 170.23 162.77 1089.11 1044.17 1065.42 1065.88 28.10 28.20 5.30 0.60
 45974533 15438 0 18000 832.00 0.00 12.67 0.00 352.80 266.40 2.7900 0.1400 1247.10 0.000 0.030 0.000 1.20 0.000 47.9482651 -97.1724777 108.400 116.200 266.8 23.030 21.970 2.660 61.54 124.810 170.37 156.98 170.81 163.22 1094.17 1048.66 1071.68 1068.18 28.10 28.20 5.20 0.50
 45974534 15438 0 19000 830.10 0.00 0.57 0.00 352.90 266.40 2.7800 0.2000 1248.10 0.000 -0.010 0.000 1.20 0.000 47.9482765 -97.1724548 108.400 116.200 266.8 23.080 21.920 2.410 61.42 124.740 171.14 157.54 171.47 163.82 1105.98 1055.85 1081.32 1072.98 28.10 28.10 5.20 0.50
 45974535 15438 0 20000 829.50 0.00 -24.23 0.00 352.80 266.40 2.8600 0.2100 1173.10 0.000 0.010 0.000 1.20 0.000 47.9482765 -97.1724548 108.400 116.200 266.8 23.050 21.920 1.960 59.44 124.690 171.09 157.34 171.32 163.55 1133.37 1074.37 1100.49 1081.89 28.10 28.20 5.20 0.50
 45974536 15438 0 21000 830.90 0.00 -50.30 0.00 352.80 266.40 2.8600 0.1900 978.50 0.000 -0.020 -0.010 1.20 0.000 47.9482803 -97.1724548 108.400 116.200 266.8 23.050 21.970 1.760 56.51 124.620 171.60 157.65 171.73 163.87 1152.64 1101.10 1115.82 1106.69 28.10 28.20 5.10 0.50
 45974537 15438 0 22000 831.70 0.00 -52.63 0.00 352.80 266.40 2.8300 0.1500 951.40 0.000 0.010 0.000 1.20 0.000 47.9482803 -97.1724548 108.400 116.200 266.8 23.050 22.020 1.850 57.01 124.560 172.22 158.16 172.29 164.33 1135.58 1111.02 1121.99 1130.31 28.10 28.10 5.10 0.50
 45974538 15438 0 23000 832.20 0.00 -17.23 0.00 352.80 266.40 2.7600 0.2000 1157.50 0.000 0.000 0.000 1.20 0.000 47.9482803 -97.1724548 108.400 116.200 266.8 23.080 22.020 2.440 61.06 124.480 172.86 158.66 172.85 164.81 1140.95 1126.33 1128.07 1143.69 28.10 28.20 5.20 0.50
 45974539 15438 0 24000 832.20 0.00 11.96 0.00 352.90 266.40 2.7400 0.2000 1233.10 0.000 0.000 -0.010 1.20 0.000 47.9482803 -97.1724548 108.400 116.200 266.8 23.120 21.970 2.440 61.52 124.420 173.62 159.24 173.54 165.36 1160.91 1132.63 1136.63 1144.28 28.10 28.20 5.10 0.50
 45974540 15438 0 25000 830.90 0.00 21.60 0.00 352.80 266.40 2.7400 0.1900 1250.30 0.000 0.040 -0.010 1.20 0.000 47.9482841 -97.1724548 108.400 116.200 266.8 23.120 22.020 2.420 61.54 124.350 174.30 159.77 174.10 165.86 1179.29 1137.64 1149.30 1144.37 28.10 28.20 5.20 0.50
 45974541 15438 0 26000 831.40 0.00 3.63 0.00 352.80 266.40 2.7000 0.2100 1255.60 0.000 0.010 -0.010 1.20 0.000 47.9482803 -97.1724548 108.400 116.200 266.8 23.140 21.970 2.450 61.64 124.270 174.91 160.31 174.68 166.36 1194.28 1142.80 1161.47 1145.14 28.10 28.20 5.10 0.50
 45974542 15438 0 27000 830.20 0.00 -17.18 0.00 352.80 266.40 2.6800 0.1900 1246.80 0.000 -0.020 0.000 1.20 0.000 47.9482841 -97.1724548 108.400 116.200 266.8 23.160 21.970 2.380 61.59 124.210 175.54 160.79 175.24 166.85 1207.98 1150.06 1171.92 1148.53 28.10 28.20 5.10 0.50
 45974543 15438 0 28000 829.90 0.00 -16.03 0.00 352.80 266.40 2.6900 0.1900 1246.50 0.000 -0.020 0.000 1.20 0.000 47.9482803 -97.1724548 108.400 116.200 266.8 23.160 21.970 2.430 61.41 124.150 176.18 161.28 175.78 167.34 1222.36 1155.53 1183.96 1153.86 28.10 28.20 5.00 0.50
 45974544 15438 0 29000 829.40 0.00 -0.95 0.00 352.80 266.40 2.7000 0.1800 1239.00 0.000 0.010 -0.010 1.20 0.000 47.9482803 -97.1724548 108.400 116.200 266.8 23.180 21.970 2.460 61.29 124.090 176.92 161.92 176.48 167.97 1238.09 1159.85 1194.58 1158.97 28.10 28.20 4.90 0.50
 45974545 15438 0 30000 829.20 0.00 -14.40 0.00 352.80 266.40 2.6800 0.1600 1228.50 0.000 -0.030 0.010 1.20 0.000 47.9482803 -97.1724548 108.400 116.200 266.8 23.180 21.970 2.370 60.99 124.010 177.49 162.43 176.97 168.37 1252.46 1164.56 1201.81 1162.65 28.10 28.20 5.00 0.50
 45974546 15438 0 31000 828.80 0.00 -10.90 0.00 352.80 266.40 2.7400 0.1400 1147.60 0.000 0.000 0.000 1.20 0.000 47.9482765 -97.1724548 108.400 116.200 266.8 23.180 22.020 2.160 59.28 123.960 178.24 162.96 177.62 169.00 1256.28 1164.57 1198.95 1161.18 28.10 28.20 5.00 0.50
 45974547 15438 0 32000 828.30 0.00 -4.38 0.00 352.80 266.40 2.7600 0.1400 1053.60 0.000 0.000 0.000 1.20 0.000 47.9482765 -97.1724548 108.400 116.200 266.8 23.180 21.970 1.950 57.94 123.890 178.88 163.50 178.24 169.54 1246.75 1158.01 1186.27 1153.68 28.10 28.20 4.90 0.50
 45974548 15438 0 33000 829.60 0.00 -9.22 0.00 352.80 266.40 2.7800 0.1300 1011.40 0.000 0.010 -0.010 1.20 0.000 47.9482765 -97.1724548 108.400 116.200 266.8 23.160 21.970 1.910 57.56 123.820 179.56 164.09 178.85 170.08 1230.25 1145.33 1169.24 1142.34 28.10 28.20 4.90 0.50
 45974549 15438 0 34000 829.40 0.00 -13.38 0.00 352.70 266.40 2.7500 0.1100 1001.90 0.000 0.000 0.000 1.20 0.000 47.9482765 -97.1724548 108.400 116.200 266.8 23.160 21.970 1.910 57.59 123.750 180.24 164.60 179.42 170.60 1214.98 1129.56 1152.14 1130.20 28.00 28.10 4.40 0.20
 45974550 15438 0 35000 829.60 0.00 -12.17 0.00 352.80 266.40 2.7400 0.1400 1003.80 0.000 -0.020 0.000 1.20 0.000 47.9482765 -97.1724548 108.400 116.200 266.8 23.180 21.970 1.950 57.70 123.680 180.89 165.18 180.01 171.12 1197.84 1114.27 1134.89 1117.56 28.10 28.10 4.80 0.40
 45974551 15438 0 36000 829.40 0.00 -7.46 0.00 352.70 266.40 2.7200 0.1200 1004.70 0.000 0.000 0.000 1.20 0.000 47.9482765 -97.1724548 108.400 116.200 266.8 23.160 21.970 1.950 57.61 123.620 181.67 165.78 180.72 171.77 1183.43 1100.83 1119.26 1107.74 28.10 28.10 4.80 0.50
 45974552 15438 0 37000 829.40 0.00 5.14 0.00 352.80 266.40 2.7400 0.1300 996.70 0.000 -0.020 0.000 1.20 0.000 47.9482765 -97.1724548 108.400 116.200 266.8 23.180 21.970 1.910 57.54 123.550 182.33 166.38 181.32 172.33 1172.04 1089.00 1106.99 1099.28 28.10 28.10 4.80 0.50
 45974553 15438 0 38000 829.50 0.00 9.91 0.00 352.80 266.40 2.7600 0.1300 998.70 0.000 -0.010 0.010 1.20 0.000 47.9482689 -97.1724548 108.400 116.200 266.8 23.160 22.020 1.900 57.64 123.470 182.98 166.95 181.91 172.88 1160.02 1080.53 1095.85 1092.14 28.10 28.10 4.80 0.50
 45974554 15438 0 39000 828.10 0.00 14.01 0.00 352.70 266.40 2.7700 0.1200 1002.70 0.000 0.000 -0.010 1.20 0.000 47.9482765 -97.1724548 108.400 116.200 266.8 23.140 22.020 1.910 57.60 123.410 183.64 167.44 182.48 173.41 1151.24 1074.23 1087.24 1085.51 28.10 28.10 4.70 0.40
 45974555 15438 0 40000 828.40 0.00 14.90 0.00 352.80 266.40 2.7800 0.1800 1006.60 0.000 0.000 0.000 1.20 0.000 47.9482689 -97.1724472 108.400 116.200 266.8 23.140 22.020 1.910 57.69 123.350 184.29 167.92 183.10 173.92 1143.16 1068.17 1078.99 1079.29 28.10 28.10 4.70 0.40
 45974556 15438 0 41000 828.30 0.00 1.13 0.00 352.80 266.40 2.7900 0.1600 1006.80 0.000 0.000 0.000 1.20 0.000 47.9482689 -97.1724472 108.400 116.200 266.8 23.120 22.020 1.900 57.74 123.280 184.92 168.48 183.67 174.43 1135.08 1063.77 1072.84 1074.32 28.10 28.20 4.80 0.40
 45974557 15438 0 42000 828.10 0.00 -12.30 0.00 352.80 266.40 2.7900 0.1600 1005.30 0.000 0.010 0.010 1.20 0.000 47.9482689 -97.1724472 108.400 116.200 266.8 23.120 22.020 1.910 57.65 123.220 185.66 169.12 184.34 175.05 1130.13 1060.74 1068.14 1071.62 28.10 28.20 4.80 0.40
 45974558 15438 0 43000 827.90 0.00 -0.28 0.00 352.80 266.40 2.7700 0.1600 1004.30 0.000 -0.010 0.000 1.20 0.000 47.9482689 -97.1724472 108.400 116.200 266.8 23.120 22.060 1.930 57.71 123.170 186.30 169.68 184.93 175.58 1126.58 1057.63 1062.94 1069.90 28.10 28.20 4.70 0.40
 45974559 15438 0 44000 827.80 0.00 14.82 0.00 352.80 266.40 2.7800 0.1600 1003.60 0.000 -0.010 -0.010 1.20 0.000 47.9482689 -97.1724472 108.400 116.200 266.8 23.050 22.060 1.910 57.60 123.110 186.98 170.21 185.49 176.10 1126.36 1053.36 1058.50 1067.85 28.10 28.20 4.70 0.40
 45974560 15438 0 45000 829.10 0.00 30.38 0.00 352.80 266.40 2.7900 0.2100 996.70 0.000 0.000 0.000 1.20 0.000 47.9482689 -97.1724548 108.400 116.200 266.8 23.050 22.020 1.870 57.53 123.060 187.60 170.73 186.04 176.62 1118.40 1051.17 1056.36 1064.17 28.10 28.20 4.70 0.40
 45974561 15438 0 46000 828.90 0.00 18.07 0.00 352.80 266.40 2.7700 0.1500 1003.50 0.000 -0.020 0.000 1.20 0.000 47.9482689 -97.1724548 108.400 116.200 266.8 23.050 22.060 1.910 57.75 123.010 188.23 171.30 186.65 177.12 1116.05 1049.15 1055.98 1060.38 28.10 28.20 4.60 0.40
 45974562 15438 0 47000 829.10 0.00 1.83 0.00 352.80 266.40 2.8000 0.2100 1007.00 0.000 0.020 0.000 1.20 0.000 47.9482689 -97.1724472 108.400 116.200 266.8 23.030 22.060 1.910 57.71 122.960 188.86 171.83 187.20 177.61 1113.52 1047.27 1053.16 1057.74 28.10 28.20 4.60 0.40
 45974563 15438 0 48000 829.00 0.00 -5.81 0.00 352.80 266.40 2.7900 0.1900 1003.00 0.000 0.000 -0.010 1.20 0.000 47.9482689 -97.1724548 108.400 116.200 266.8 23.010 22.060 1.920 57.67 122.910 189.50 172.36 187.78 178.13 1111.31 1046.24 1050.55 1054.05 28.10 28.20 4.60 0.40
 45974564 15438 0 49000 829.00 0.00 -15.50 0.00 352.80 266.40 2.7400 0.1800 1002.10 0.000 -0.030 0.000 1.20 0.000 47.9482689 -97.1724548 108.400 116.200 266.8 22.990 22.060 1.910 57.69 122.870 189.52 172.22 187.72 178.04 1110.14 1043.90 1047.71 1052.05 28.10 28.10 4.60 0.40
 45974565 15438 0 50000 828.90 0.00 -15.20 0.00 352.80 266.40 2.7600 0.2000 1004.90 0.000 0.000 0.000 1.20 0.000 47.9482689 -97.1724548 108.400 116.200 266.8 22.990 22.060 1.890 57.66 122.830 190.05 172.61 188.16 178.43 1110.13 1041.00 1047.20 1052.04 28.10 28.20 4.60 0.40
 45974566 15438 0 51000 827.40 0.00 -9.95 0.00 352.80 266.40 2.8100 0.2000 999.60 0.000 0.010 -0.010 1.20 0.000 47.9482765 -97.1724472 108.400 116.200 266.8 22.990 22.060 1.910 57.59 122.790 190.59 173.00 188.56 178.81 1110.54 1038.76 1045.43 1050.72 28.10 28.20 4.60 0.40
 45974567 15438 0 52000 827.50 0.00 2.65 0.00 352.80 266.40 2.8000 0.2100 993.90 0.000 0.010 0.000 1.20 0.000 47.9482765 -97.1724472 108.400 116.200 266.8 22.990 22.060 1.900 57.65 122.750 191.29 173.67 189.25 179.36 1113.68 1037.93 1047.42 1048.27 28.10 28.20 4.50 0.40
 45974568 15438 0 53000 827.30 0.00 13.54 0.00 352.90 266.40 2.8000 0.2300 998.50 0.000 0.010 -0.010 1.20 0.000 47.9482765 -97.1724548 108.400 116.200 266.8 22.990 22.060 1.920 57.65 122.710 191.93 174.15 189.82 179.90 1113.62 1035.51 1047.82 1045.52 28.10 28.20 4.50 0.40
 45974569 15438 0 54000 827.00 0.00 17.69 0.00 352.80 266.40 2.8100 0.2200 997.40 0.000 0.000 -0.010 1.20 0.000 47.9482765 -97.1724548 108.400 116.200 266.8 23.010 22.110 1.910 57.61 122.670 192.53 174.65 190.38 180.39 1110.95 1032.97 1046.69 1043.17 28.10 28.20 4.50 0.40
 45974570 15438 0 55000 826.80 0.00 16.07 0.00 352.90 266.40 2.8300 0.2100 995.50 0.000 0.010 0.000 1.20 0.000 47.9482765 -97.1724472 108.400 116.200 266.8 23.010 22.060 1.930 57.66 122.640 193.17 175.16 190.92 180.90 1107.45 1032.42 1044.95 1042.67 28.10 28.20 4.40 0.40
 45974571 15438 0 56000 826.50 0.00 6.97 0.00 352.90 266.40 2.7900 0.2100 993.20 0.000 0.000 0.000 1.20 0.000 47.9482765 -97.1724472 108.400 116.200 266.8 23.010 22.110 1.910 57.56 122.600 193.80 175.69 191.48 181.37 1107.74 1031.34 1046.06 1042.06 28.10 28.10 4.40 0.40
 45974572 15438 0 57000 827.90 0.00 20.72 0.00 352.90 266.40 2.7900 0.2300 995.60 0.000 0.000 0.000 1.20 0.000 47.9482765 -97.1724548 108.400 116.200 266.8 23.010 22.060 1.910 57.57 122.570 194.38 176.18 192.04 181.88 1108.22 1029.16 1045.64 1039.09 28.10 28.20 4.40 0.40
 45974573 15438 0 58000 827.50 0.00 11.08 0.00 352.90 266.40 2.7900 0.2200 994.20 0.000 -0.010 0.000 1.20 0.000 47.9482765 -97.1724548 108.400 116.200 266.8 23.010 22.060 1.910 57.62 122.540 195.02 176.70 192.56 182.35 1105.75 1028.96 1043.46 1037.18 28.10 28.20 4.40 0.40
 45974574 15438 0 60000 827.30 0.00 -11.33 0.00 352.90 266.40 2.8000 0.2300 996.80 0.000 0.000 0.000 1.20 0.000 47.9482765 -97.1724548 108.400 116.200 266.8 23.010 22.060 1.870 57.66 122.500 195.72 177.25 193.16 182.88 1104.24 1029.43 1041.37 1038.42 28.10 28.20 4.40 0.40
 45974575 15438 0 61000 827.00 0.00 -10.92 0.00 353.00 266.40 2.7900 0.2200 1003.20 0.000 -0.010 0.000 1.20 0.000 47.9482765 -97.1724548 108.400 116.200 266.8 23.010 22.020 1.930 57.73 122.440 196.98 178.33 194.36 183.95 1105.51 1027.23 1037.91 1039.60 28.10 28.20 4.40 0.40
 45974576 15438 0 62000 826.90 0.00 -26.98 0.00 353.00 266.40 2.7900 0.2000 1000.10 0.000 0.000 0.010 1.20 0.000 47.9482765 -97.1724548 108.400 116.200 266.8 23.030 22.020 1.860 57.67 122.410 197.49 178.75 194.77 184.32 1106.13 1025.94 1036.79 1039.34 28.10 28.20 4.30 0.40
 45974577 15438 0 63000 837.10 0.00 -12.37 0.00 352.90 266.40 2.7800 0.1900 1000.80 0.000 0.000 -0.010 1.20 0.000 47.9482651 -97.1724243 108.400 116.200 266.8 23.030 21.970 1.890 57.63 122.380 198.19 179.29 195.42 184.87 1111.12 1026.53 1037.49 1038.78 28.10 28.20 4.30 0.40
 45974578 15438 0 64000 837.20 0.00 10.18 0.00 353.00 266.40 2.7800 0.2300 1006.40 0.000 -0.010 -0.010 1.20 0.000 47.9482651 -97.1724243 108.400 116.200 266.8 23.030 21.970 1.870 57.78 122.350 198.82 179.83 195.94 185.35 1109.04 1026.13 1038.70 1038.46 28.10 28.20 4.30 0.40
 45974579 15438 0 66000 837.30 0.00 19.72 0.00 353.00 266.40 2.7900 0.2300 995.80 0.000 0.010 0.000 1.20 0.000 47.9482651 -97.1724243 108.400 116.200 266.8 23.050 22.020 1.890 57.67 122.320 199.44 180.38 196.49 185.86 1107.08 1027.04 1040.16 1038.20 28.10 28.20 4.30 0.30
 45974580 15438 0 66001 837.30 0.00 3.35 0.00 353.00 266.40 2.7800 0.2300 997.40 0.000 0.020 0.000 1.20 0.000 47.9482651 -97.1724243 108.400 116.200 266.8 23.050 22.020 1.910 57.66 122.290 200.02 180.81 197.06 186.31 1107.06 1029.53 1040.39 1038.27 28.10 28.20 4.20 0.40
 45974581 15438 0 67000 837.30 0.00 -19.59 0.00 353.00 266.40 2.7900 0.2400 1002.50 0.000 0.000 -0.010 1.20 0.000 47.9482651 -97.1724243 108.400 116.200 266.8 23.030 22.020 1.900 57.76 122.270 200.63 181.34 197.58 186.82 1105.75 1029.97 1039.52 1039.90 28.10 28.20 4.30 0.30
 45974582 15438 0 68000 837.30 0.00 -16.20 0.00 352.90 266.40 2.8100 0.2400 1004.50 0.000 0.000 -0.010 1.20 0.000 47.9482651 -97.1724243 108.400 116.200 266.8 23.050 22.060 1.880 57.78 122.240 201.23 181.82 198.10 187.24 1105.09 1029.22 1039.06 1041.41 28.10 28.20 4.30 0.40
 45974583 15438 0 69000 837.40 0.00 -13.03 0.00 353.00 266.40 2.8100 0.2300 1007.80 0.000 0.000 0.000 1.20 0.000 47.9482651 -97.1724243 108.400 116.200 266.8 23.080 22.060 1.930 57.77 122.210 201.94 182.38 198.74 187.85 1105.68 1028.71 1040.62 1040.87 28.10 28.20 4.20 0.30
 45974584 15438 0 70000 837.30 0.00 -2.39 0.00 353.00 266.40 2.7900 0.2300 1014.40 0.000 -0.010 -0.010 1.20 0.000 47.9482651 -97.1724243 108.400 116.200 266.8 23.080 22.060 1.910 57.95 122.180 202.43 182.79 199.19 188.20 1105.22 1028.51 1041.14 1040.30 28.10 28.20 4.20 0.40
 45974585 15438 0 72000 837.10 0.00 7.92 0.00 353.00 266.40 2.7700 0.2300 1013.90 0.000 0.000 0.010 1.20 0.000 47.9482651 -97.1724243 108.400 116.200 266.8 23.080 22.060 1.910 57.84 122.160 203.11 183.39 199.85 188.77 1104.29 1028.87 1041.20 1040.37 28.10 28.20 4.20 0.30
 45974586 15438 0 72001 837.20 0.00 -1.32 0.00 353.00 266.40 2.7700 0.2400 1009.30 0.000 0.010 0.000 1.20 0.000 47.9482651 -97.1724243 108.400 116.200 266.8 23.080 22.060 1.930 57.83 122.140 203.72 183.86 200.34 189.22 1106.98 1030.11 1042.54 1040.88 28.10 28.20 4.10 0.30
 45974587 15438 0 73000 837.20 0.00 -10.98 0.00 353.00 266.40 2.7500 0.2200 1010.10 0.000 0.000 -0.020 1.20 0.000 47.9482651 -97.1724243 108.400 116.200 266.8 23.080 22.060 1.900 57.81 122.110 204.31 184.33 200.86 189.71 1106.67 1030.19 1046.28 1040.53 28.10 28.20 4.20 0.30
 45974588 15438 0 74000 837.30 0.00 -0.12 0.00 353.00 266.40 2.7200 0.2400 1007.50 0.000 -0.020 -0.010 1.20 0.000 47.9482651 -97.1724243 108.400 116.200 266.8 23.120 22.060 1.900 57.77 122.090 204.90 184.80 201.38 190.15 1106.14 1029.51 1048.12 1040.47 28.10 28.20 4.10 0.30
 45974589 15438 0 75000 837.30 0.00 26.24 0.00 353.00 266.40 2.7700 0.2300 999.60 0.000 0.000 0.000 1.20 0.000 47.9482651 -97.1724243 108.400 116.200 266.8 23.120 22.020 1.930 57.75 122.060 205.48 185.27 201.88 190.60 1106.49 1028.71 1048.23 1041.70 28.10 28.20 4.10 0.30
 45974590 15438 0 76000 837.60 0.00 24.35 0.00 353.00 266.40 2.7800 0.2000 1002.80 0.000 0.000 0.000 1.20 0.000 47.9482651 -97.1724243 108.400 116.200 266.8 23.120 22.020 1.910 57.72 122.040 206.09 185.72 202.43 191.07 1110.07 1027.79 1047.56 1042.23 28.10 28.20 4.20 0.30
 45974591 15438 0 77000 837.80 0.00 15.60 0.00 353.00 266.40 2.7900 0.2200 996.60 0.000 0.000 0.000 1.50 0.000 47.9482651 -97.1724243 108.400 116.200 266.8 23.120 22.060 1.880 57.63 122.010 206.68 186.19 202.93 191.49 1111.15 1028.64 1047.83 1041.55 28.10 28.20 4.10 0.30
 45974592 15438 0 79000 837.90 0.00 0.76 0.00 353.00 266.40 2.7700 0.2000 1006.50 0.000 0.000 -0.010 1.20 0.000 47.9482651 -97.1724243 108.400 116.200 266.8 23.120 22.060 1.960 57.83 121.990 207.24 186.71 203.45 191.94 1114.03 1030.06 1046.35 1038.66 28.10 28.20 4.20 0.30
 45974593 15438 0 79001 838.10 0.00 1.50 0.00 353.00 266.40 2.7900 0.2100 1010.90 0.000 0.000 0.000 1.20 0.000 47.9482651 -97.1724243 108.400 116.200 266.8 23.140 22.060 1.910 57.81 121.960 207.85 187.11 203.96 192.40 1114.34 1029.57 1046.05 1036.74 28.10 28.20 4.10 0.30
 45974594 15438 0 80000 838.20 0.00 0.07 0.00 353.00 266.40 2.7800 0.2000 1013.40 0.000 0.020 -0.010 1.20 0.000 47.9482651 -97.1724243 108.400 116.200 266.8 23.140 22.060 1.890 57.94 121.940 208.51 187.65 204.60 192.94 1113.59 1028.09 1047.17 1036.53 28.10 28.20 4.10 0.30
 45974595 15438 0 81000 838.30 0.00 -12.38 0.00 353.00 266.40 2.7600 0.2100 1017.00 0.000 0.000 0.000 1.20 0.000 47.9482651 -97.1724243 108.400 116.200 266.8 23.140 22.060 1.930 57.91 121.920 209.09 188.14 205.09 193.40 1114.18 1027.33 1047.49 1036.77 28.10 28.20 4.10 0.30
 45974596 15438 0 82000 838.10 0.00 -15.04 0.00 353.00 266.40 2.7700 0.1500 1015.10 0.000 -0.020 0.000 1.20 0.000 47.9482651 -97.1724243 108.400 116.200 266.8 23.140 22.110 1.930 57.91 121.890 209.58 188.48 205.49 193.72 1112.27 1027.86 1047.11 1035.07 28.10 28.20 4.00 0.30
 45974597 15438 0 83000 837.80 0.00 13.86 0.00 353.00 266.40 2.8000 0.2000 1013.50 0.000 0.010 -0.010 1.20 0.000 47.9482651 -97.1724243 108.400 116.200 266.8 23.140 22.130 1.890 57.83 121.860 209.40 188.25 205.27 193.42 1111.94 1027.10 1046.63 1034.19 28.10 28.20 4.00 0.30
 45974598 15438 0 85000 837.70 0.00 12.05 0.00 353.00 266.40 2.7900 0.2000 1009.00 0.000 -0.010 -0.010 1.50 0.000 47.9482651 -97.1724243 108.400 116.200 266.8 23.140 22.110 1.950 57.80 121.840 209.81 188.55 205.67 193.71 1114.64 1026.56 1045.14 1035.05 28.10 28.20 4.00 0.30
 45974599 15438 0 85001 837.50 0.00 1.02 0.00 353.00 266.40 2.7800 0.1800 1008.10 0.000 -0.010 -0.010 1.50 0.000 47.9482651 -97.1724243 108.400 116.200 266.8 23.140 22.110 1.930 57.83 121.820 210.37 188.94 206.11 194.11 1115.28 1026.13 1045.64 1036.29 28.10 28.20 4.00 0.30
 45974600 15438 0 86000 837.30 0.00 1.98 0.00 353.00 266.40 2.8000 0.1500 1007.70 0.000 0.020 0.000 1.50 0.000 47.9482651 -97.1724243 108.400 116.200 266.8 23.140 22.110 1.900 57.79 121.790 211.06 189.50 206.72 194.67 1116.62 1027.35 1045.03 1039.35 28.10 28.20 4.00 0.30
 45974601 15438 0 87000 837.10 0.00 -1.10 0.00 353.00 266.40 2.7800 0.1800 1004.20 0.000 0.000 -0.010 1.50 0.000 47.9482651 -97.1724243 108.400 116.200 266.8 23.140 22.060 1.900 57.78 121.770 211.64 189.96 207.21 195.11 1116.59 1026.39 1046.81 1040.71 28.10 28.20 4.00 0.30
 45974602 15438 0 88000 837.10 0.00 -0.04 0.00 353.00 266.40 2.7900 0.1600 1007.70 0.000 -0.010 -0.010 1.20 0.000 47.9482651 -97.1724243 108.400 116.200 266.8 23.140 22.060 1.920 57.80 121.740 212.08 190.25 207.58 195.43 1115.74 1024.62 1049.54 1039.66 28.10 28.20 4.00 0.30
 45974603 15438 0 89000 837.10 0.00 0.61 0.00 353.00 266.40 2.7800 0.2000 1012.00 0.000 0.000 0.000 1.50 0.000 47.9482651 -97.1724243 108.400 116.200 266.8 23.080 22.060 1.910 57.88 121.720 212.70 190.74 208.11 195.92 1115.78 1023.27 1049.97 1038.95 28.10 28.20 3.90 0.30
 45974604 15438 0 91000 837.00 0.00 -1.80 0.00 353.00 266.40 2.7900 0.1900 1007.20 0.000 0.000 -0.010 1.50 0.000 47.9482651 -97.1724243 108.400 116.200 266.8 23.080 22.060 1.890 57.84 121.690 213.28 191.25 208.72 196.36 1112.02 1023.83 1049.90 1038.99 28.10 28.20 4.00 0.30
 45974605 15438 0 91001 837.20 0.00 -15.28 0.00 353.00 266.40 2.8000 0.1900 1003.40 0.000 -0.010 0.000 1.50 0.000 47.9482651 -97.1724167 108.400 116.200 266.8 23.080 22.020 1.870 57.71 121.670 213.80 191.63 209.16 196.76 1103.84 1024.84 1048.72 1039.77 28.10 28.20 4.00 0.30
 45974606 15438 0 92000 837.20 0.00 -2.32 0.00 353.00 266.40 2.8000 0.1900 1008.10 0.000 0.000 0.000 1.50 0.000 47.9482651 -97.1724167 108.400 116.200 266.8 23.050 22.060 1.940 57.85 121.640 214.33 192.07 209.64 197.15 1100.10 1025.69 1048.91 1040.29 28.10 28.20 3.90 0.30
 45974607 15438 0 93000 837.40 0.00 9.95 0.00 353.00 266.40 2.7600 0.2000 1011.70 0.000 -0.020 0.000 1.50 0.000 47.9482651 -97.1724167 108.400 116.200 266.8 23.050 22.060 1.910 57.85 121.620 214.88 192.48 210.10 197.54 1099.99 1026.36 1048.98 1039.00 28.10 28.20 3.90 0.30
 45974608 15438 0 94000 837.20 0.00 -0.06 0.00 353.00 266.40 2.7900 0.2000 1008.80 0.000 0.000 0.000 1.50 0.000 47.9482651 -97.1724167 108.400 116.200 266.8 23.050 22.060 1.890 57.86 121.590 215.42 192.88 210.58 197.96 1103.34 1026.63 1048.97 1036.88 28.10 28.20 3.90 0.30
 45974609 15438 0 95000 837.10 0.00 -2.82 0.00 353.00 266.40 2.8200 0.2000 1007.80 0.000 0.030 0.000 1.50 0.000 47.9482651 -97.1724167 108.400 116.200 266.8 23.050 22.060 1.920 57.87 121.570 215.94 193.30 211.05 198.36 1104.89 1026.02 1049.59 1034.80 28.10 28.20 3.90 0.30
 45974610 15438 0 97000 837.20 0.00 -7.17 0.00 353.00 266.40 2.8100 0.2000 1011.30 0.000 0.010 0.000 1.50 0.000 47.9482651 -97.1724167 108.400 116.200 266.8 23.050 22.060 1.920 57.83 121.540 216.46 193.75 211.57 198.78 1103.67 1024.00 1050.43 1034.28 28.10 28.20 3.90 0.30
 45974611 15438 0 97001 837.30 0.00 -14.26 0.00 352.90 266.40 2.8000 0.1600 1003.30 0.000 0.020 -0.020 1.50 0.000 47.9482651 -97.1724167 108.400 116.200 266.8 23.050 22.060 1.900 57.76 121.520 217.00 194.09 211.96 199.14 1102.73 1022.85 1050.99 1033.94 28.10 28.20 3.80 0.30
 45974612 15438 0 98000 837.30 0.00 20.58 0.00 353.00 266.40 2.7900 0.2300 1001.60 0.000 0.000 0.000 1.50 0.000 47.9482651 -97.1724167 108.400 116.200 266.8 23.080 22.060 1.900 57.72 121.500 217.52 194.49 212.45 199.57 1101.30 1024.01 1050.90 1033.64 28.10 28.20 3.80 0.20
 45974613 15438 0 99000 837.20 0.00 31.54 0.00 352.90 266.40 2.8100 0.1900 996.10 0.000 -0.010 0.000 1.50 0.000 47.9482651 -97.1724167 108.400 116.200 266.8 23.080 22.060 1.940 57.66 121.470 218.06 194.88 212.91 199.93 1101.21 1025.93 1049.60 1033.77 28.10 28.20 3.80 0.30
 45974614 15438 0 100000 837.50 0.00 19.70 0.00 353.00 266.40 2.8000 0.2000 1001.50 0.000 0.000 0.000 1.50 0.000 47.9482651 -97.1724167 108.400 116.200 266.8 23.080 22.060 1.860 57.83 121.450 218.56 195.26 213.36 200.31 1099.57 1026.39 1047.62 1034.27 28.10 28.20 3.80 0.30
 45974615 15438 0 101000 837.60 0.00 16.14 0.00 353.00 266.40 2.8100 0.1900 1000.80 0.000 -0.010 -0.010 1.50 0.000 47.9482651 -97.1724167 108.400 116.200 266.8 23.120 22.060 1.920 57.76 121.420 219.11 195.67 213.82 200.71 1099.06 1026.41 1047.82 1033.66 28.10 28.20 3.80 0.30
 45974616 15438 0 103000 837.60 0.00 19.87 0.00 353.00 266.40 2.8300 0.1900 1003.10 0.000 -0.010 0.000 1.50 0.000 47.9482651 -97.1724167 108.400 116.200 266.8 23.120 22.060 1.870 57.77 121.400 219.61 196.08 214.30 201.09 1098.24 1025.00 1047.88 1033.76 28.10 28.20 3.70 0.30
 45974617 15438 0 103001 837.70 0.00 11.38 0.00 353.00 266.40 2.8300 0.1600 998.90 0.000 0.010 0.000 1.50 0.000 47.9482651 -97.1724167 108.400 116.200 266.8 23.120 22.060 1.910 57.78 121.370 220.13 196.45 214.70 201.46 1096.54 1024.86 1048.49 1032.64 28.10 28.20 3.80 0.30
 45974618 15438 0 104000 837.70 0.00 -3.03 0.00 353.00 266.40 2.8300 0.2000 1000.10 0.000 -0.010 -0.010 1.50 0.000 47.9482651 -97.1724167 108.400 116.200 266.8 23.140 22.060 1.940 57.75 121.350 220.64 196.81 215.14 201.81 1095.47 1027.25 1047.11 1031.17 28.10 28.20 3.70 0.30
 45974619 15438 0 105000 838.10 0.00 -29.70 0.00 352.90 266.40 2.8200 0.1900 1001.00 0.000 0.000 0.000 1.50 0.000 47.9482651 -97.1724167 108.400 116.200 266.8 23.160 22.020 1.900 57.76 121.330 221.14 197.22 215.58 202.20 1097.64 1026.26 1045.70 1031.50 28.10 28.20 3.80 0.30
 45974620 15438 0 106000 838.00 0.00 -12.71 0.00 352.90 266.40 2.7900 0.1500 1005.10 0.000 -0.010 0.000 1.50 0.000 47.9482651 -97.1724167 108.400 116.200 266.8 23.160 22.060 1.910 57.88 121.300 221.65 197.58 216.04 202.58 1096.75 1025.33 1045.14 1033.18 28.10 28.20 3.80 0.30
 45974621 15438 0 107000 838.20 0.00 9.89 0.00 352.90 266.40 2.7800 0.1900 1008.50 0.000 -0.010 0.000 1.50 0.000 47.9482651 -97.1724167 108.400 116.200 266.8 23.160 22.060 1.920 57.85 121.280 222.16 197.99 216.43 202.95 1097.44 1025.03 1045.63 1033.61 28.10 28.20 3.70 0.30
 45974622 15438 0 109000 838.30 0.00 12.54 0.00 352.90 266.40 2.7900 0.1900 1005.50 0.000 -0.010 -0.010 1.50 0.000 47.9482651 -97.1724167 108.400 116.200 266.8 23.180 22.060 1.870 57.81 121.250 222.67 198.35 216.91 203.32 1098.44 1025.44 1046.10 1033.37 28.10 28.20 3.70 0.30
 45974623 15438 0 109001 838.20 0.00 -13.25 0.00 352.90 266.40 2.8100 0.1800 1005.80 0.000 0.010 0.000 1.50 0.000 47.9482651 -97.1724167 108.400 116.200 266.8 23.180 22.110 1.920 57.89 121.230 223.18 198.73 217.33 203.69 1100.55 1025.11 1048.18 1035.56 28.10 28.20 3.70 0.20
 45974624 15438 0 110000 838.30 0.00 -29.25 0.00 352.90 266.40 2.7800 0.1900 1010.00 0.000 0.000 0.010 1.50 0.000 47.9482651 -97.1724167 108.400 116.200 266.8 23.220 22.110 1.900 57.88 121.210 223.67 199.08 217.76 204.02 1100.82 1024.48 1050.08 1034.28 28.10 28.20 3.70 0.30
 45974625 15438 0 111000 838.00 0.00 -8.72 0.00 352.90 266.40 2.7600 0.1900 1014.30 0.000 -0.010 0.000 1.50 0.000 47.9482651 -97.1724167 108.400 116.200 266.8 23.200 22.110 1.880 57.97 121.180 224.17 199.46 218.20 204.40 1102.29 1025.02 1049.69 1033.31 28.10 28.20 3.70 0.30
 45974626 15438 0 112000 838.10 0.00 -7.26 0.00 352.90 266.40 2.7800 0.1900 1015.20 0.000 0.010 0.000 1.50 0.000 47.9482651 -97.1724167 108.400 116.200 266.8 23.220 22.110 1.900 57.92 121.160 224.67 199.81 218.61 204.74 1101.45 1025.84 1049.70 1034.25 28.10 28.20 3.60 0.30
 45974627 15438 0 113000 838.00 0.00 14.92 0.00 353.00 266.40 2.7800 0.2200 1015.60 0.000 0.000 0.000 1.50 0.000 47.9482651 -97.1724167 108.400 116.200 266.8 23.220 22.060 1.910 57.97 121.130 225.27 200.28 219.17 205.21 1101.12 1026.93 1051.16 1035.52 28.10 28.20 3.70 0.30
 45974628 15438 0 115000 838.00 0.00 11.72 0.00 352.90 266.40 2.7800 0.1900 1016.00 0.000 0.010 -0.010 1.50 0.000 47.9482651 -97.1724167 108.400 116.200 266.8 23.220 22.060 1.880 57.91 121.110 225.66 200.59 219.49 205.46 1099.82 1027.49 1050.67 1035.91 28.10 28.20 3.60 0.20
 45974629 15438 0 116000 856.40 0.00 15.71 0.00 353.00 266.40 2.7700 0.2400 1014.40 0.000 0.000 0.000 1.50 0.000 47.9482841 -97.1724777 108.400 116.200 266.8 23.220 22.110 1.880 57.95 121.080 226.21 201.07 219.98 205.90 1098.81 1028.87 1050.72 1036.12 28.10 28.20 3.60 0.20
 45974630 15438 0 116001 856.20 0.00 4.64 0.00 353.00 266.40 2.7800 0.2400 1012.30 0.000 0.000 0.000 1.50 0.000 47.9482841 -97.1724777 108.400 116.200 266.8 23.220 22.110 1.890 57.88 121.070 226.74 201.37 220.43 206.24 1098.83 1030.30 1050.85 1035.53 28.10 28.20 3.70 0.30
 45974631 15438 0 117000 854.10 0.00 15.25 0.00 353.00 266.40 2.7600 0.2400 1009.20 0.000 -0.010 0.000 1.50 0.000 47.9482803 -97.1724777 108.400 116.200 75.8 23.200 22.110 1.940 57.86 121.040 227.22 201.75 220.84 206.58 1098.17 1029.90 1052.54 1035.61 28.10 28.20 3.60 0.30
 45974632 15438 0 118000 853.90 0.00 1.65 0.00 352.90 266.40 2.7600 0.2300 1005.70 0.000 -0.010 0.000 1.50 0.000 47.9482803 -97.1724777 108.400 116.200 75.8 23.180 22.110 1.880 57.89 121.020 227.62 201.98 221.14 206.85 1102.09 1029.06 1052.23 1036.02 28.10 28.20 3.60 0.20
 45974633 15438 0 119000 851.70 0.00 -22.18 0.00 353.00 266.40 2.7800 0.2300 1005.20 0.000 0.000 0.000 1.50 0.000 47.9482765 -97.1724777 108.400 116.200 75.8 23.160 22.060 1.890 57.82 121.000 228.17 202.40 221.65 207.27 1101.97 1029.56 1051.55 1036.71 28.10 28.20 3.60 0.20
 45974634 15438 0 120000 851.50 0.00 -4.53 0.00 352.90 266.40 2.7800 0.2300 1002.80 0.000 -0.020 -0.010 1.50 0.000 47.9482765 -97.1724777 108.400 116.200 75.8 23.160 22.060 1.920 57.81 120.980 228.66 202.77 222.06 207.63 1101.02 1029.28 1051.46 1036.65 28.10 28.20 3.60 0.20
 45974635 15438 0 121000 851.10 0.00 8.84 0.00 353.00 266.40 2.7700 0.2500 1003.00 0.000 -0.020 0.000 1.50 0.000 47.9482765 -97.1724777 108.400 116.200 75.8 23.140 22.060 1.880 57.76 120.960 229.01 203.02 222.36 207.85 1099.84 1029.23 1052.98 1037.73 28.10 28.20 3.60 0.30
 45974636 15438 0 123000 842.20 0.00 8.64 0.00 352.90 266.40 2.7800 0.2200 1005.10 0.000 -0.010 -0.010 1.50 0.000 47.9482651 -97.1724548 108.400 116.200 75.8 23.140 22.060 1.870 57.78 120.930 229.58 203.48 222.89 208.27 1099.83 1028.95 1054.57 1037.99 28.10 28.20 3.60 0.30
 45974637 15438 0 123001 843.60 0.00 -7.40 0.00 352.90 266.40 2.8000 0.2400 1007.90 0.000 0.000 -0.010 1.50 0.000 47.9482651 -97.1724548 108.400 116.200 75.8 23.140 22.060 1.830 57.89 120.910 230.08 203.78 223.27 208.59 1098.75 1028.96 1054.75 1037.68 28.10 28.20 3.60 0.20
 45974638 15438 0 124000 843.30 0.00 8.93 0.00 353.00 266.40 2.8000 0.2600 1011.10 0.000 0.010 -0.010 1.50 0.000 47.9482651 -97.1724548 108.400 116.200 75.8 23.160 22.060 1.900 57.86 120.890 230.53 204.11 223.63 208.92 1098.77 1030.14 1053.36 1037.36 28.10 28.20 3.50 0.20
 45974639 15438 0 125000 842.70 0.00 7.51 0.00 352.90 266.40 2.7900 0.2300 1010.10 0.000 0.000 0.000 1.50 0.000 47.9482651 -97.1724548 108.400 116.200 75.8 23.140 22.060 1.930 57.87 120.870 230.96 204.46 224.04 209.23 1099.12 1030.48 1053.15 1037.88 28.10 28.20 3.60 0.20
 45974640 15438 0 126000 842.80 0.00 0.40 0.00 353.00 266.40 2.7900 0.2300 1012.50 0.000 0.000 -0.010 1.50 0.000 47.9482651 -97.1724548 108.400 116.200 75.8 23.140 22.110 1.860 57.90 120.850 231.47 204.76 224.45 209.56 1099.59 1029.39 1053.03 1037.80 28.10 28.20 3.60 0.20
 45974641 15438 0 127000 842.70 0.00 -13.20 0.00 352.90 266.40 2.8000 0.2400 1018.70 0.000 0.000 -0.010 1.50 0.000 47.9482651 -97.1724548 108.400 116.200 75.8 23.140 22.060 1.900 58.02 120.830 231.93 205.11 224.83 209.89 1098.90 1028.93 1053.74 1037.11 28.10 28.20 3.50 0.20
 45974642 15438 0 129000 842.50 0.00 -15.76 0.00 353.00 266.40 2.8100 0.2300 1020.90 0.000 -0.010 0.000 1.50 0.000 47.9482651 -97.1724548 108.400 116.200 75.8 23.120 22.060 1.880 58.06 120.800 232.36 205.50 225.25 210.18 1098.19 1029.03 1054.50 1036.29 28.10 28.20 3.50 0.20
 45974643 15438 0 129001 840.90 0.00 -4.32 0.00 353.00 266.40 2.8100 0.2200 1017.10 0.000 -0.010 0.010 1.50 0.000 47.9482651 -97.1724548 108.400 116.200 75.8 23.120 22.020 1.910 57.94 120.780 232.71 205.65 225.47 210.42 1099.49 1029.66 1054.21 1036.71 28.10 28.20 3.50 0.20
 45974644 15438 0 130000 841.20 0.00 8.24 0.00 353.00 266.40 2.8200 0.2100 1014.80 0.000 0.010 -0.010 1.50 0.000 47.9482651 -97.1724548 108.400 116.200 75.8 23.120 22.020 1.890 57.96 120.760 233.23 206.04 225.93 210.81 1101.11 1030.95 1054.19 1037.40 28.10 28.20 3.50 0.20
 45974645 15438 0 131000 841.20 0.00 10.22 0.00 353.00 266.40 2.8100 0.2300 1012.80 0.000 0.000 0.010 1.50 0.000 47.9482651 -97.1724548 108.400 116.200 75.8 23.080 21.970 1.920 57.87 120.740 233.58 206.30 226.23 211.02 1099.91 1031.43 1055.11 1037.07 28.10 28.20 3.50 0.20
 45974646 15438 0 132000 841.10 0.00 10.83 0.00 353.00 266.40 2.8100 0.1800 1012.40 0.000 0.000 -0.010 1.50 0.000 47.9482651 -97.1724548 108.400 116.200 75.8 23.080 22.020 1.900 57.92 120.720 233.27 205.92 225.89 210.60 1098.99 1031.62 1055.21 1037.85 28.10 28.20 3.50 0.20
 45974647 15438 0 133000 840.90 0.00 15.78 0.00 353.00 266.40 2.8200 0.2000 1013.00 0.000 0.010 0.000 1.50 0.000 47.9482651 -97.1724548 114.300 116.200 75.8 23.050 22.020 1.860 57.90 120.710 233.59 206.07 226.12 210.76 1100.34 1031.63 1054.98 1039.33 28.10 28.20 3.50 0.20
 45974648 15438 0 135000 840.70 0.00 15.99 0.00 353.00 266.40 2.8200 0.1900 1011.30 0.000 -0.010 0.000 1.50 0.000 47.9482651 -97.1724548 108.400 116.200 75.8 23.050 22.020 1.890 57.94 120.680 234.10 206.51 226.59 211.14 1100.98 1031.89 1055.25 1038.76 28.10 28.20 3.40 0.20
 45974649 15438 0 135001 842.40 0.00 15.39 0.00 353.00 266.40 2.8200 0.1800 1006.60 0.000 -0.010 -0.010 1.50 0.000 47.9482651 -97.1724548 114.300 116.200 75.8 23.050 22.020 1.910 57.84 120.670 234.58 206.79 226.91 211.46 1102.37 1032.21 1054.84 1039.51 28.10 28.20 3.50 0.20
 45974650 15438 0 136000 842.10 0.00 -0.90 0.00 353.00 266.40 2.8200 0.1900 1009.50 0.000 0.000 -0.010 1.50 0.000 47.9482651 -97.1724548 114.300 116.200 75.8 23.030 22.020 1.880 57.90 120.650 234.99 207.12 227.35 211.74 1100.64 1032.36 1054.67 1039.96 28.10 28.20 3.50 0.20
 45974651 15438 0 137000 841.90 0.00 -15.26 0.00 353.00 266.40 2.8200 0.2300 1009.50 0.000 0.000 0.000 1.50 0.000 47.9482651 -97.1724548 114.300 116.200 75.8 23.050 22.020 1.880 57.93 120.630 235.41 207.44 227.67 212.03 1099.16 1033.41 1053.58 1039.79 28.10 28.20 3.50 0.20
 45974652 15438 0 138000 842.00 0.00 -34.64 0.00 353.00 266.40 2.8200 0.2000 1007.10 0.000 0.010 0.000 1.50 0.000 47.9482651 -97.1724548 114.300 116.200 75.8 23.050 22.020 1.910 57.82 120.610 235.84 207.76 228.05 212.34 1097.84 1034.21 1051.46 1038.89 28.10 28.20 3.40 0.20
 45974653 15438 0 139000 842.10 0.00 -8.35 0.00 353.00 266.40 2.8100 0.2000 1005.50 0.000 -0.010 -0.010 1.50 0.000 47.9482651 -97.1724548 114.300 116.200 75.8 23.050 22.020 1.920 57.84 120.590 236.28 208.09 228.39 212.64 1098.30 1034.87 1050.58 1039.72 28.10 28.20 3.40 0.20
 45974654 15438 0 141000 842.20 0.00 17.65 0.00 353.00 266.40 2.8300 0.2300 1003.90 0.000 -0.010 0.010 1.50 0.000 47.9482651 -97.1724548 114.300 116.200 75.8 23.030 22.060 1.860 57.76 120.570 236.71 208.42 228.75 212.92 1101.26 1034.05 1053.83 1038.35 28.10 28.20 3.40 0.20
 45974655 15438 0 141001 840.70 0.00 26.27 0.00 353.00 266.40 2.8200 0.1900 1005.30 0.000 0.000 0.000 1.50 0.000 47.9482651 -97.1724548 114.300 116.200 75.8 23.030 22.060 1.890 57.82 120.550 237.11 208.70 229.07 213.22 1101.67 1034.81 1053.80 1037.56 28.10 28.20 3.40 0.20
 45974656 15438 0 142000 840.90 0.00 17.03 0.00 353.00 266.40 2.8300 0.2000 1003.50 0.000 -0.020 -0.010 1.50 0.000 47.9482651 -97.1724548 114.300 116.200 75.8 23.030 22.060 1.910 57.80 120.530 237.51 209.01 229.41 213.46 1100.87 1034.89 1054.03 1035.97 28.10 28.20 3.40 0.20
 45974657 15438 0 143000 840.90 0.00 3.60 0.00 353.00 266.40 2.8700 0.2100 1004.60 0.000 0.020 -0.010 1.50 0.000 47.9482651 -97.1724548 114.300 116.200 75.8 23.010 22.060 1.880 57.80 120.510 237.93 209.32 229.77 213.76 1100.33 1034.13 1055.82 1035.77 28.10 28.20 3.40 0.20
 45974658 15438 0 144000 840.90 0.00 1.90 0.00 353.00 266.40 2.8200 0.1900 1010.50 0.000 -0.010 -0.010 1.50 0.000 47.9482651 -97.1724548 114.300 116.200 75.8 23.010 22.060 1.870 57.90 120.490 238.31 209.64 230.10 214.01 1097.54 1033.90 1055.72 1036.61 28.10 28.20 3.30 0.20
 45974659 15438 0 145000 840.80 0.00 -9.83 0.00 353.00 266.40 2.8500 0.2100 1009.60 0.000 0.000 -0.010 1.50 0.000 47.9482651 -97.1724548 114.300 116.200 75.8 23.010 22.060 1.880 57.84 120.480 238.63 209.85 230.33 214.19 1095.61 1034.03 1054.41 1035.54 28.10 28.20 3.30 0.20
 45974660 15438 0 147000 840.90 0.00 -15.34 0.00 353.00 266.40 2.8500 0.2000 1006.50 0.000 0.000 0.000 1.50 0.000 47.9482651 -97.1724548 114.300 116.200 75.8 22.970 22.060 1.870 57.84 120.460 238.99 210.12 230.69 214.47 1096.79 1034.05 1053.42 1034.10 28.10 28.20 3.40 0.20
 45974661 15438 0 147001 842.60 0.00 -13.02 0.00 353.00 266.40 2.8200 0.1900 1005.10 0.000 0.000 0.000 1.50 0.000 47.9482651 -97.1724548 114.300 116.200 75.8 22.970 22.060 1.860 57.89 120.440 239.49 210.49 231.08 214.84 1095.30 1032.92 1051.99 1034.36 28.10 28.20 3.30 0.20
 45974662 15438 0 148000 842.50 0.00 -10.19 0.00 353.00 266.40 2.8500 0.2000 1008.10 0.000 0.010 -0.010 1.50 0.000 47.9482651 -97.1724548 114.300 116.200 75.8 22.970 22.060 1.860 57.83 120.420 239.91 210.83 231.42 215.10 1092.92 1031.28 1048.23 1034.18 28.10 28.20 3.40 0.20
 45974663 15438 0 149000 842.50 0.00 4.77 0.00 353.00 266.40 2.8500 0.1900 1003.90 0.000 0.000 0.000 1.50 0.000 47.9482651 -97.1724548 114.300 116.200 75.8 22.970 22.130 1.910 57.82 120.400 240.28 211.17 231.76 215.39 1091.37 1029.41 1048.80 1033.29 28.10 28.20 3.30 0.20
 45974664 15438 0 150000 842.70 0.00 0.71 0.00 353.00 266.40 2.8600 0.2100 1007.10 0.000 0.010 0.000 1.50 0.000 47.9482651 -97.1724548 114.300 116.200 75.8 22.990 22.170 1.880 57.88 120.380 240.67 211.44 232.07 215.68 1093.23 1028.77 1048.95 1033.62 28.10 28.20 3.30 0.20
 45974665 15438 0 151000 842.90 0.00 -0.93 0.00 353.00 266.40 2.8500 0.1800 1009.40 0.000 0.000 0.010 1.50 0.000 47.9482651 -97.1724548 114.300 116.200 75.8 23.010 22.170 1.890 57.84 120.360 241.08 211.75 232.40 215.93 1094.49 1028.61 1048.70 1034.05 28.10 28.20 3.30 0.20
 45974666 15438 0 153000 843.10 0.00 -11.43 0.00 353.00 266.40 2.8600 0.2000 1007.80 0.000 0.000 0.000 1.50 0.000 47.9482651 -97.1724548 114.300 116.200 75.8 22.990 22.170 1.860 57.83 120.350 241.33 211.98 232.63 216.12 1092.25 1027.17 1049.97 1034.27 28.10 28.20 3.30 0.20
 45974667 15438 0 153001 841.70 0.00 -5.91 0.00 353.00 266.40 2.8500 0.1800 1010.00 0.000 0.010 -0.010 1.50 0.000 47.9482651 -97.1724548 114.300 116.200 75.8 22.990 22.170 1.860 57.81 120.330 241.80 212.30 233.00 216.44 1091.63 1026.80 1052.18 1034.03 28.10 28.20 3.30 0.20
 45974668 15438 0 154000 842.10 0.00 4.56 0.00 353.10 266.40 2.7900 0.1900 1007.60 0.000 -0.010 0.000 1.50 0.000 47.9482651 -97.1724548 114.300 116.200 75.8 22.990 22.170 1.850 57.85 120.310 242.10 212.52 233.23 216.59 1090.79 1027.61 1051.44 1034.52 28.10 28.20 3.30 0.20
 45974669 15438 0 155000 842.30 0.00 15.98 0.00 353.00 266.40 2.8200 0.1800 1011.80 0.000 0.000 -0.010 1.50 0.000 47.9482651 -97.1724548 114.300 116.200 75.8 23.010 22.170 1.890 57.90 120.300 242.47 212.81 233.54 216.85 1091.49 1029.37 1052.02 1034.10 28.10 28.20 3.30 0.20
 45974670 15438 0 156000 842.30 0.00 21.76 0.00 353.00 266.40 2.8300 0.1900 1012.60 0.000 0.000 0.000 1.50 0.000 47.9482651 -97.1724548 114.300 116.200 75.8 23.010 22.170 1.890 57.92 120.280 242.83 213.11 233.84 217.10 1091.97 1031.27 1051.28 1034.64 28.10 28.20 3.30 0.20
 45974671 15438 0 157000 842.30 0.00 -8.26 0.00 353.10 266.40 2.8200 0.2100 1016.40 0.000 -0.010 0.010 1.50 0.000 47.9482651 -97.1724548 114.300 116.200 75.8 23.030 22.210 1.890 58.00 120.260 243.17 213.40 234.15 217.31 1090.80 1031.74 1049.70 1034.50 28.10 28.20 3.20 0.20
 45974672 15438 0 159000 842.40 0.00 -15.69 0.00 353.00 266.40 2.8200 0.1500 1013.70 0.000 0.000 -0.010 1.50 0.000 47.9482651 -97.1724548 114.300 116.200 75.8 23.030 22.170 1.850 57.91 120.250 243.57 213.69 234.49 217.59 1093.01 1031.99 1049.37 1035.79 28.10 28.20 3.30 0.20
 45974673 15438 0 159001 844.10 0.00 9.55 0.00 353.10 266.40 2.8500 0.2000 1012.60 0.000 0.000 0.010 1.50 0.000 47.9482651 -97.1724548 114.300 116.200 75.8 23.030 22.210 1.900 57.96 120.230 243.93 213.95 234.77 217.83 1096.32 1032.63 1050.35 1037.49 28.10 28.20 3.30 0.20
 45974674 15438 0 160000 844.10 0.00 16.54 0.00 353.00 266.40 2.8300 0.1800 1020.40 0.000 -0.010 0.000 1.50 0.000 47.9482651 -97.1724548 114.300 116.200 75.8 23.030 22.170 1.910 57.97 120.220 244.30 214.23 235.06 218.09 1099.20 1032.09 1049.64 1038.05 28.10 28.20 3.20 0.20
 45974675 15438 0 161000 844.00 0.00 16.03 0.00 353.10 266.40 2.8300 0.2200 1022.50 0.000 0.000 0.010 1.50 0.000 47.9482651 -97.1724548 114.300 116.200 75.8 23.030 22.210 1.850 58.10 120.200 244.65 214.50 235.33 218.35 1098.37 1030.88 1048.45 1038.25 28.10 28.20 3.20 0.20
 45974676 15438 0 162000 844.20 0.00 16.00 0.00 353.00 266.40 2.8600 0.2000 1023.50 0.000 0.010 0.000 1.50 0.000 47.9482651 -97.1724548 114.300 116.200 75.8 23.030 22.210 1.850 57.99 120.190 244.99 214.78 235.66 218.59 1096.44 1029.14 1048.73 1038.08 28.10 28.20 3.20 0.20
 45974677 15438 0 163000 844.30 0.00 18.18 0.00 353.00 266.40 2.8700 0.2100 1020.60 0.000 0.010 0.000 1.50 0.000 47.9482651 -97.1724548 114.300 116.200 75.8 23.030 22.210 1.880 58.04 120.170 245.37 215.08 235.95 218.81 1095.42 1029.90 1049.95 1039.79 28.10 28.20 3.20 0.20
 45974678 15438 0 165000 844.40 0.00 25.19 0.00 353.10 266.40 2.8900 0.2400 1023.10 0.000 0.020 -0.010 1.50 0.000 47.9482651 -97.1724548 114.300 116.200 75.8 23.030 22.210 1.870 58.03 120.150 245.74 215.36 236.26 219.05 1094.15 1031.80 1049.73 1040.91 28.10 28.20 3.20 0.20
 45974679 15438 0 165001 842.80 0.00 15.28 0.00 353.10 266.40 2.8700 0.2100 1020.50 0.000 -0.010 0.000 1.50 0.000 47.9482651 -97.1724548 114.300 116.200 75.8 23.030 22.210 1.880 58.02 120.140 246.07 215.62 236.52 219.30 1096.00 1032.86 1049.75 1040.38 28.10 28.20 3.20 0.20
 45974680 15438 0 166000 842.60 0.00 -13.63 0.00 353.10 266.40 2.8800 0.2000 1022.30 0.000 0.000 0.000 1.50 0.000 47.9482651 -97.1724548 114.300 116.200 75.8 23.050 22.210 1.850 58.00 120.120 246.41 215.88 236.82 219.53 1097.46 1033.27 1049.75 1040.55 28.10 28.20 3.20 0.20
 45974681 15438 0 168000 842.50 0.00 -6.02 0.00 353.10 266.40 2.8900 0.2200 1019.30 0.000 0.000 -0.010 1.50 0.000 47.9482651 -97.1724548 114.300 116.200 75.8 23.050 22.210 1.860 57.99 120.110 246.77 216.16 237.12 219.75 1098.32 1035.44 1051.04 1039.98 28.10 28.20 3.10 0.20
 45974682 15438 0 168001 842.40 0.00 -5.59 0.00 353.00 266.40 2.8800 0.2200 1022.10 0.000 -0.020 -0.010 1.50 0.000 47.9482651 -97.1724548 114.300 116.200 75.8 23.050 22.170 1.870 58.02 120.090 247.10 216.41 237.42 220.00 1101.06 1036.02 1052.30 1040.32 28.10 28.20 3.20 0.20
 45974683 15438 0 170000 842.20 0.00 2.60 0.00 353.10 266.40 2.9200 0.2500 1017.40 0.000 0.010 0.000 1.50 0.000 47.9482651 -97.1724548 114.300 116.200 75.8 23.030 22.170 1.870 57.94 120.080 247.46 216.72 237.69 220.24 1099.11 1035.83 1053.22 1040.80 28.10 28.20 3.20 0.20
 45974684 15438 0 171000 842.20 0.00 29.09 0.00 353.00 266.40 2.9300 0.2200 1014.30 0.000 -0.010 -0.020 1.50 0.000 47.9482651 -97.1724548 114.300 116.200 75.8 23.050 22.170 1.870 57.87 120.060 247.80 216.95 238.00 220.47 1095.58 1034.95 1057.12 1041.48 28.10 28.20 3.30 0.20
 45974685 15438 0 172000 843.70 0.00 17.00 0.00 353.10 266.40 2.9000 0.2900 1015.70 0.000 -0.020 0.010 1.50 0.000 47.9482651 -97.1724548 108.400 116.200 75.8 23.050 22.130 1.890 57.96 120.050 248.13 217.20 238.23 220.66 1094.56 1034.61 1057.18 1042.95 28.10 28.20 3.20 0.20
 45974686 15438 0 173000 844.20 0.00 -9.64 0.00 353.00 266.40 2.9000 0.2300 1018.10 0.000 0.000 0.000 1.50 0.000 47.9482651 -97.1724548 108.400 116.200 75.8 23.050 22.130 1.890 57.89 120.030 248.48 217.50 238.53 220.91 1093.77 1034.34 1054.30 1041.91 28.10 28.20 3.10 0.20
 45974687 15438 0 174000 844.20 0.00 -13.27 0.00 353.10 266.40 2.9000 0.2600 1009.70 0.000 -0.010 -0.010 1.50 0.000 47.9482651 -97.1724548 114.300 116.200 75.8 23.080 22.130 1.910 57.84 120.020 248.79 217.72 238.79 221.15 1097.49 1033.76 1052.59 1040.89 28.10 28.20 3.10 0.20
 45974688 15438 0 175000 844.40 0.00 -12.22 0.00 353.10 266.40 2.9200 0.2500 1009.40 0.000 -0.010 0.000 1.50 0.000 47.9482651 -97.1724548 114.300 116.200 75.8 23.080 22.110 1.890 57.77 120.000 249.14 217.97 239.06 221.33 1099.92 1033.37 1053.38 1040.00 28.10 28.20 3.10 0.20
 45974689 15438 0 176000 844.60 0.00 -19.33 0.00 353.00 266.40 2.9200 0.2500 1008.30 0.000 0.000 -0.010 1.50 0.000 47.9482651 -97.1724548 114.300 116.200 75.8 23.080 22.130 1.860 57.79 119.990 249.47 218.22 239.34 221.57 1098.61 1031.90 1054.98 1040.82 28.10 28.20 3.20 0.20
 45974690 15438 0 177000 844.80 0.00 -13.88 0.00 353.00 266.40 2.9100 0.2600 1010.90 0.000 -0.010 -0.010 1.50 0.000 47.9482651 -97.1724548 114.300 116.200 75.8 23.050 22.130 1.850 57.87 119.970 249.78 218.48 239.64 221.83 1097.57 1031.19 1052.27 1041.83 28.10 28.20 3.10 0.20
 45974691 15438 0 178000 843.40 0.00 -13.72 0.00 353.00 266.40 2.9200 0.2200 1013.50 0.000 0.010 0.000 1.50 0.000 47.9482651 -97.1724548 114.300 116.200 75.8 23.050 22.130 1.860 57.87 119.960 250.10 218.75 239.86 222.00 1097.81 1031.51 1048.70 1040.31 28.10 28.20 3.10 0.20
 45974692 15438 0 179000 843.00 0.00 -15.77 0.00 353.00 266.40 2.8700 0.2400 1013.80 0.000 0.000 -0.010 1.50 0.000 47.9482651 -97.1724548 114.300 116.200 75.8 23.030 22.130 1.880 57.94 119.940 250.44 218.98 240.13 222.23 1098.35 1031.08 1046.89 1040.26 28.10 28.20 3.10 0.20
 45974693 15438 0 180000 843.00 0.00 8.57 0.00 353.00 266.40 2.8900 0.2200 1012.70 0.000 0.000 0.010 1.50 0.000 47.9482651 -97.1724548 114.300 116.200 75.8 23.050 22.130 1.850 57.84 119.930 250.73 219.22 240.40 222.43 1098.07 1030.63 1048.09 1039.96 28.10 28.20 3.10 0.20
 45974694 15438 0 181000 842.90 0.00 15.70 0.00 353.10 266.40 2.9100 0.2300 1011.50 0.000 -0.010 0.000 1.50 0.000 47.9482651 -97.1724548 114.300 116.200 75.8 23.080 22.130 1.850 57.92 119.910 251.07 219.45 240.67 222.65 1097.05 1030.00 1050.98 1039.58 28.10 28.20 3.20 0.20
 45974695 15438 0 182000 842.70 0.00 2.53 0.00 353.00 266.40 2.9200 0.2100 1013.20 0.000 -0.010 0.000 1.50 0.000 47.9482651 -97.1724548 114.300 116.200 75.8 23.080 22.110 1.860 57.87 119.900 251.36 219.69 240.93 222.85 1096.23 1029.97 1052.83 1037.38 28.10 28.20 3.10 0.20
 45974696 15438 0 183000 842.60 0.00 -7.01 0.00 353.00 266.40 2.9100 0.2000 1010.30 0.000 0.000 0.000 1.50 0.000 47.9482651 -97.1724548 114.300 116.200 75.8 23.120 22.110 1.880 57.87 119.880 251.66 219.96 241.20 223.07 1096.73 1031.98 1054.43 1037.67 28.10 28.20 3.10 0.20
 45974697 15438 0 184000 840.10 0.00 -0.39 0.00 353.00 266.40 2.9100 0.2000 1018.40 0.000 0.000 0.000 1.50 0.000 47.9482765 -97.1724548 114.300 116.200 75.8 23.120 22.110 1.860 58.00 119.870 251.98 220.19 241.45 223.27 1097.47 1032.84 1054.23 1038.33 28.10 28.20 3.10 0.20
 45974698 15438 0 185000 840.40 0.00 2.33 0.00 352.90 266.40 2.9100 0.1600 1015.70 0.000 0.000 -0.020 1.50 0.000 47.9482765 -97.1724548 114.300 116.200 75.8 23.120 22.110 1.830 57.91 119.850 252.19 220.31 241.61 223.36 1098.50 1032.92 1052.30 1037.50 28.10 28.20 3.10 0.20
 45974699 15438 0 186000 839.90 0.00 0.11 0.00 353.00 266.40 2.8800 0.2200 1017.70 0.000 0.000 -0.010 1.50 0.000 47.9482765 -97.1724548 114.300 116.200 75.8 23.120 22.110 1.860 57.93 119.840 252.57 220.62 241.93 223.66 1098.70 1032.51 1051.11 1037.53 28.10 28.20 3.10 0.20
 45974700 15438 0 187000 839.80 0.00 -11.36 0.00 353.00 266.40 2.8900 0.1900 1017.70 0.000 0.000 -0.010 1.50 0.000 47.9482765 -97.1724548 114.300 116.200 75.8 23.080 22.130 1.870 57.93 119.820 252.76 220.76 242.09 223.78 1096.50 1032.23 1050.67 1038.02 28.10 28.20 3.10 0.20
 45974701 15438 0 188000 839.70 0.00 -12.73 0.00 353.00 266.40 2.9200 0.2000 1013.70 0.000 0.010 -0.010 1.50 0.000 47.9482765 -97.1724548 114.300 116.200 75.8 23.080 22.130 1.880 57.90 119.810 253.14 221.07 242.45 224.06 1094.21 1034.07 1049.11 1038.17 28.10 28.20 3.00 0.20
 45974702 15438 0 189000 839.50 0.00 13.43 0.00 353.10 266.40 2.9000 0.2100 1010.00 0.000 -0.020 0.000 1.50 0.000 47.9482765 -97.1724548 114.300 116.200 75.8 23.120 22.130 1.850 57.76 119.790 253.35 221.20 242.61 224.19 1093.02 1033.80 1049.76 1038.73 28.10 28.20 3.00 0.20
 45974703 15438 0 189001 840.20 0.00 10.10 0.00 353.00 266.40 2.9000 0.1800 1010.60 0.000 0.010 0.000 1.50 0.000 47.9482765 -97.1724548 114.300 116.200 75.8 23.120 22.110 1.890 57.89 119.780 253.64 221.37 242.81 224.37 1094.00 1032.66 1050.37 1039.13 28.20 28.20 3.10 0.20
 45974704 15438 0 191000 839.90 0.00 12.80 0.00 353.10 266.40 2.9000 0.2200 1013.30 0.000 -0.010 0.000 1.50 0.000 47.9482765 -97.1724548 114.300 116.200 75.8 23.080 22.130 1.880 57.84 119.770 254.02 221.70 243.18 224.65 1093.44 1031.66 1050.30 1039.09 28.10 28.20 3.10 0.20
 45974705 15438 0 191001 840.40 0.00 5.16 0.00 353.10 266.40 2.9000 0.2200 1013.20 0.000 0.010 -0.010 1.50 0.000 47.9482765 -97.1724548 114.300 116.200 75.8 23.050 22.130 1.880 57.85 119.750 254.26 221.87 243.34 224.77 1090.85 1031.00 1050.61 1038.65 28.10 28.20 3.00 0.20
 45974706 15438 0 192000 840.40 0.00 -8.84 0.00 353.00 266.40 2.9100 0.2000 1016.00 0.000 0.000 0.000 1.50 0.000 47.9482765 -97.1724548 114.300 116.200 75.8 23.030 22.130 1.880 57.93 119.740 254.51 222.08 243.54 224.93 1088.61 1031.35 1048.62 1039.39 28.10 28.20 3.00 0.20
 45974707 15438 0 193000 840.40 0.00 -5.78 0.00 353.10 266.40 2.9000 0.1900 1019.30 0.000 0.010 0.010 1.50 0.000 47.9482765 -97.1724548 114.300 116.200 75.8 23.030 22.130 1.910 57.91 119.730 254.78 222.26 243.78 225.13 1086.42 1030.18 1047.56 1039.90 28.10 28.20 3.00 0.20
 45974708 15438 0 195000 839.30 0.00 13.58 0.00 353.00 266.40 2.8800 0.1800 1015.50 0.000 0.000 0.010 1.50 0.000 47.9482689 -97.1724472 114.300 116.200 75.8 23.010 22.130 1.880 57.90 119.710 255.08 222.51 244.03 225.32 1088.42 1030.97 1050.41 1038.65 28.10 28.20 3.00 0.20
 45974709 15438 0 195001 838.60 0.00 6.22 0.00 353.00 266.40 2.8800 0.1800 1013.00 0.000 0.000 -0.010 1.50 0.000 47.9482765 -97.1724472 114.300 116.200 75.8 23.010 22.130 1.840 57.87 119.700 255.32 222.74 244.25 225.50 1088.85 1031.43 1051.81 1037.56 28.10 28.20 3.00 0.20
 45974710 15438 0 196000 838.30 0.00 0.60 0.00 353.10 266.40 2.8700 0.2300 1013.50 0.000 -0.020 0.000 1.50 0.000 47.9482765 -97.1724472 114.300 116.200 75.8 23.010 22.130 1.850 57.88 119.690 255.64 222.92 244.51 225.69 1089.59 1031.09 1051.22 1037.37 28.10 28.20 3.00 0.20
 45974711 15438 0 197000 837.50 0.00 -5.41 0.00 353.00 266.40 2.8800 0.2000 1011.10 0.000 -0.030 -0.010 1.50 0.000 47.9482765 -97.1724472 114.300 116.200 75.8 23.010 22.130 1.860 57.82 119.680 255.92 223.13 244.70 225.87 1090.93 1030.47 1050.07 1036.67 28.10 28.20 3.00 0.20
 45974712 15438 0 198000 837.40 0.00 -12.82 0.00 353.10 266.40 2.8800 0.2400 1012.50 0.000 0.010 -0.010 1.50 0.000 47.9482765 -97.1724472 114.300 116.200 75.8 23.030 22.130 1.850 57.89 119.670 256.14 223.32 244.95 226.03 1092.25 1030.40 1048.49 1036.07 28.10 28.20 3.00 0.10
 45974713 15438 0 199000 837.20 0.00 -30.25 0.00 353.10 266.40 2.8600 0.2400 1011.80 0.000 -0.010 0.010 1.50 0.000 47.9482765 -97.1724472 114.300 116.200 75.8 23.010 22.170 1.870 57.81 119.650 256.45 223.56 245.19 226.24 1091.66 1029.76 1047.40 1035.38 28.20 28.20 3.00 0.10
 45974714 15438 0 201000 837.10 0.00 -14.86 0.00 353.00 266.40 2.8600 0.2200 1012.70 0.000 -0.010 -0.010 1.50 0.000 47.9482765 -97.1724472 114.300 116.200 75.8 22.990 22.130 1.830 57.89 119.640 256.71 223.78 245.45 226.44 1093.51 1028.74 1047.91 1036.08 28.10 28.20 3.00 0.20
 45974715 15438 0 201001 838.00 0.00 19.04 0.00 353.10 266.40 2.8800 0.2300 1011.10 0.000 -0.010 0.000 1.50 0.000 47.9482765 -97.1724472 114.300 116.200 75.8 22.990 22.170 1.850 57.78 119.630 257.00 223.94 245.63 226.61 1093.85 1029.49 1046.96 1037.88 28.10 28.20 3.00 0.20
 45974716 15438 0 202000 838.10 0.00 7.73 0.00 353.00 266.40 2.8500 0.2000 1009.90 0.000 0.000 0.000 1.50 0.000 47.9482765 -97.1724472 114.300 116.200 75.8 23.010 22.170 1.850 57.82 119.620 257.22 224.16 245.88 226.77 1094.77 1030.34 1047.43 1038.27 28.10 28.20 3.00 0.20
 45974717 15438 0 203000 838.60 0.00 25.87 0.00 353.10 266.40 2.8300 0.2300 1012.50 0.000 0.000 -0.010 1.50 0.000 47.9482765 -97.1724472 114.300 116.200 75.8 23.030 22.170 1.860 57.87 119.610 257.51 224.35 246.11 226.95 1095.41 1030.93 1048.04 1037.80 28.10 28.20 2.90 0.20
 45974718 15438 0 204000 838.70 0.00 4.65 0.00 353.10 266.40 2.8600 0.2300 1012.90 0.000 0.000 0.000 1.50 0.000 47.9482765 -97.1724472 114.300 116.200 75.8 22.990 22.170 1.850 57.84 119.600 257.80 224.56 246.35 227.15 1095.73 1029.29 1049.10 1036.98 28.10 28.20 2.90 0.10
 45974719 15438 0 205000 838.70 0.00 -14.48 0.00 353.00 266.40 2.8200 0.2100 1013.20 0.000 -0.010 -0.010 1.50 0.000 47.9482765 -97.1724472 114.300 116.200 75.8 23.010 22.170 1.840 57.89 119.590 258.04 224.76 246.57 227.33 1095.08 1027.31 1049.04 1036.55 28.20 28.20 3.00 0.20
 45974720 15438 0 207000 839.80 0.00 -6.33 0.00 353.00 266.40 2.8300 0.2200 1013.60 0.000 0.010 -0.010 1.50 0.000 47.9482689 -97.1724472 114.300 116.200 75.8 23.030 22.170 1.820 57.83 119.580 258.31 224.96 246.77 227.48 1094.07 1028.15 1048.77 1035.44 28.10 28.20 3.00 0.20
 45974721 15438 0 207001 839.10 0.00 -11.84 0.00 353.10 266.40 2.8200 0.2200 1017.90 0.000 0.000 0.000 1.50 0.000 47.9482765 -97.1724472 114.300 116.200 75.8 23.030 22.170 1.850 57.93 119.570 258.55 225.13 246.97 227.62 1094.97 1027.37 1047.53 1035.28 28.10 28.20 2.90 0.20
