# id flight phase time msl_altitude indicated_airspeed vertical_airspeed tas heading course pitch_attitude roll_attitude eng_1_rpm vertical_acceleration longitudinal_acceleration lateral_acceleration oat groundspeed latitude longitude nav_1_freq nav_2_freq obs_1 fuel_quantity_left_main fuel_quantity_right_main eng_1_fuel_flow eng_1_oil_press eng_1_oil_temp eng_1_cht_1 eng_1_cht_2 eng_1_cht_3 eng_1_cht_4 eng_1_egt_1 eng_1_egt_2 eng_1_egt_3 eng_1_egt_4 system_1_volts system_2_volts system_1_amps system_2_amps
#min 6.93723e+07 17269 0 0 0 0 -4205.9 0 0 0 -18.73 -33.01 668.1 0 -0.69 -0.27 -0.2 0 0 -97.4809 114.3 108.4 86 10.1 19.38 1.54 49.39 58.85 67.55 74.21 65.9 65.86 705.5 927.8 759.52 888.84 26.5 26.5 -8.6 -0.3
#max 6.9378e+07 17269 2.22507e-308 6.023e+06 3241.8 135.14 1717.31 138 360 359.9 16.04 36.67 2685.9 2.22507e-308 0.49 0.2 9.8 134.49 48.5892 2.22507e-308 114.3 108.4 356.1 24 24 15.85 73.62 146.6 332.51 361.1 338.97 349.67 1529.11 1551.42 1552.2 1543.96 28.3 28.3 4.4 0.4
#avg 6.93751e+07 17269 0 2.97658e+06 2079.45 82.139 -0.468634 83.8294 221.799 217.02 1.18651 0.256171 2051.66 0 0.0054453 -0.0164393 3.4247 80.2421 48.1831 -97.2696 114.3 108.4 265.054 17.3236 23.3378 7.85728 65.9758 131.813 269.515 294.414 275.5 290.083 1283.29 1316.73 1299.88 1299.16 28.1919 28.1707 1.52667 0.0276297
#dev 1426 0 0 1.50872e+06 702.319 32.49 271.33 33.2895 85.7241 92.2969 2.07962 4.42199 443.618 0 0.0706492 0.0262964 2.01713 31.0587 0.182467 0.0998562 2.52953e-12 1.16671e-11 86.3282 2.88556 0.707733 2.94284 3.53633 15.8779 27.6319 25.9242 25.3328 28.5221 118.065 118.014 122.222 115.58 0.0154477 0.0431048 0.281155 0.0444068
#min delta 1 0 0 1 -68.7 -21.7 -1100.1 -22 -359.9 -359.6 -5.14 -16.87 -486 0 -1.01 -0.29 -0.3 -6.3 -0.0011139 -97.1727 0 0 -239.5 -0.45 -1.08 -5.57 -4.91 -0.19 -1.05 -1.17 -1.01 -1.03 -96.57 -65.77 -81.54 -75.55 -0.7 -0.7 -5.3 -0.3
#max delta 1 2.22507e-308 2.22507e-308 3000 837.2 22.25 965.28 22 359.9 359.7 5.53 20.45 979.6 2.22507e-308 0.71 0.31 0.3 4.98 47.9482 0.0015411 2.22507e-308 2.22507e-308 160.9 1.03 0.47 8.76 14.41 0.36 1.85 1.86 1.88 1.92 87.08 50.12 70.77 55.58 1.3 1.3 12.8 0.6
#avg delta 1 0 0 1056.1 0.144793 2.74016e-19 0.00987903 0 0.030277 0.0626928 0.000143759 -2.45442e-05 -0.0855014 0 -3.50631e-06 1.75316e-06 0.000578541 0 0.00840613 -0.0170357 0 0 -0.0215813 -0.00178296 -0.000389201 -0.000120968 -0.00262973 0.0138412 0.0289165 0.0339499 0.0315515 0.0347388 -0.0249772 -0.016413 -0.0166252 -0.00968268 -0.000140252 -0.000140252 -0.00078892 -7.01262e-05
#dev delta 2 0 0 2112.2 5.02999 0.912752 92.7685 0.923913 3.24309 3.22155 0.514689 1.4243 10.2814 0 0.0947057 0.0309873 0.0184032 0.439439 0.0168123 0.0340713 0 0 0.15124 0.0482139 0.0311752 0.0932443 0.217843 0.0386893 0.198725 0.21096 0.19098 0.197177 1.83369 1.6491 1.80863 1.59228 0.00665491 0.0306046 0.082229 0.0194119
 69372271 17269 0 0 0.00 0.00 -29.47 0.00 182.90 00.00 0.9900 0.1500 1222.80 0.000 0.020 -0.010 6.50 0.000 0.0000000 0.0000000 114.300 108.400 282.9 22.150 24.000 2.830 65.75 58.850 67.55 74.21 65.90 65.86 1041.67 1059.65 1036.88 1046.66 28.20 28.20 4.00 0.40
 69372272 17269 0 1 837.20 0.00 -24.79 0.00 183.00 266.00 0.8900 0.2100 1223.40 0.000 -0.020 0.000 6.50 0.000 47.9481697 -97.1727295 114.300 108.400 282.9 22.150 24.000 2.810 65.77 58.860 67.77 74.39 66.05 66.06 1042.67 1061.36 1038.56 1047.82 28.20 28.20 4.00 0.40
 69372273 17269 0 1000 837.30 0.00 -19.06 0.00 183.00 266.00 0.9000 0.1600 1224.40 0.000 0.000 -0.010 6.50 0.000 47.9481697 -97.1727295 114.300 108.400 282.9 22.150 24.000 2.770 65.75 58.880 68.48 75.23 66.73 66.76 1047.86 1067.14 1044.69 1053.53 28.20 28.20 4.00 0.40
 69372274 17269 0 1001 836.90 0.00 6.39 0.00 182.90 266.00 0.9700 0.1200 1222.30 0.000 0.040 0.010 6.50 0.000 47.9481697 -97.1727295 114.300 108.400 282.9 22.150 24.000 2.810 65.69 58.900 69.22 76.08 67.42 67.48 1053.07 1073.34 1050.74 1058.85 28.20 28.20 3.90 0.40
 69372275 17269 0 2000 835.90 0.00 34.66 0.00 182.80 266.00 0.9700 0.1300 1219.30 0.000 0.000 0.000 6.50 0.000 47.9481697 -97.1727295 114.300 108.400 282.9 22.150 24.000 2.780 65.58 58.930 69.94 76.95 68.14 68.17 1057.77 1079.33 1057.19 1065.00 28.20 28.20 3.90 0.40
 69372276 17269 0 3000 833.00 0.00 35.54 0.00 182.80 266.00 0.8900 0.1500 1221.00 0.000 0.020 -0.010 6.50 0.000 47.9481697 -97.1727295 114.300 108.400 282.9 22.150 24.000 2.720 65.64 58.950 70.71 77.84 68.88 68.92 1061.77 1086.48 1062.88 1071.11 28.20 28.20 3.90 0.40
 69372277 17269 0 5000 832.60 0.00 7.64 0.00 182.80 266.00 0.8800 0.1600 1222.90 0.000 0.000 0.000 6.50 0.000 47.9481735 -97.1727295 114.300 108.400 282.9 22.150 24.000 2.750 65.66 58.970 71.59 78.72 69.60 69.67 1066.32 1093.98 1069.82 1077.14 28.20 28.20 3.80 0.30
 69372278 17269 0 6000 831.80 0.00 -17.18 0.00 182.80 266.00 0.9800 0.1400 1224.70 0.000 0.050 -0.010 6.50 0.000 47.9481697 -97.1727371 114.300 108.400 282.9 22.190 24.000 2.720 65.71 59.000 72.35 79.70 70.44 70.50 1070.62 1102.11 1075.55 1084.41 28.20 28.20 3.80 0.40
 69372279 17269 0 7000 830.90 0.00 -33.35 0.00 182.80 266.00 0.9100 0.1600 1227.60 0.000 0.000 0.000 6.50 0.000 47.9481697 -97.1727371 114.300 108.400 282.9 22.190 24.000 2.620 65.75 59.030 73.20 80.75 71.28 71.33 1075.42 1110.41 1082.10 1092.35 28.20 28.20 3.80 0.40
 69372280 17269 0 7001 831.60 0.00 -23.57 0.00 182.70 266.00 0.9100 0.1500 1231.50 0.000 -0.030 -0.010 6.50 0.000 47.9481697 -97.1727371 114.300 108.400 282.9 22.190 24.000 2.670 65.83 59.050 74.03 81.57 72.05 72.12 1080.92 1118.81 1089.74 1098.20 28.20 28.20 3.80 0.40
 69372281 17269 0 8000 828.70 0.00 1.92 0.00 182.70 266.00 0.9400 0.1800 1234.80 0.000 0.010 -0.010 6.50 0.000 47.9481621 -97.1727371 114.300 108.400 282.9 22.190 24.000 2.650 65.89 59.070 74.86 82.51 72.86 72.93 1086.93 1127.44 1096.90 1103.92 28.20 28.20 3.70 0.40
 69372282 17269 0 10000 827.50 0.00 -17.60 0.00 182.70 266.00 0.9400 0.1400 1235.20 0.000 0.000 0.000 6.50 0.000 47.9481583 -97.1727371 114.300 108.400 282.9 22.190 24.000 2.580 65.91 59.100 75.75 83.54 73.76 73.83 1094.07 1136.80 1105.04 1110.84 28.20 28.20 3.70 0.40
 69372283 17269 0 11000 832.70 0.00 -9.06 0.00 182.70 266.00 0.9200 0.1200 1238.30 0.000 -0.010 0.010 6.50 0.000 47.9481659 -97.1727371 114.300 108.400 282.9 22.190 24.000 2.560 65.98 59.120 76.56 84.44 74.53 74.60 1100.58 1145.71 1112.20 1118.63 28.20 28.20 3.70 0.40
 69372284 17269 0 12000 832.90 0.00 12.14 0.00 182.60 266.00 0.9000 0.1300 1237.80 0.000 -0.010 0.000 6.50 0.000 47.9481659 -97.1727371 114.300 108.400 282.9 22.190 24.000 2.510 65.94 59.150 77.37 85.35 75.33 75.43 1107.13 1154.79 1119.05 1125.61 28.20 28.20 3.70 0.40
 69372285 17269 0 12001 832.20 0.00 15.86 0.00 182.60 266.00 0.9700 0.1400 1232.10 0.000 0.000 0.000 6.50 0.000 47.9481659 -97.1727371 114.300 108.400 282.9 22.190 24.000 2.450 65.79 59.180 78.31 86.41 76.26 76.38 1114.52 1165.50 1126.33 1133.39 28.20 28.20 3.70 0.40
 69372286 17269 0 13000 830.70 0.00 2.17 0.00 182.60 266.00 0.9400 0.1600 1220.00 0.000 -0.020 -0.010 6.50 0.000 47.9481659 -97.1727371 114.300 108.400 282.9 22.190 24.000 2.500 65.52 59.200 79.22 87.42 77.14 77.26 1121.32 1178.42 1134.75 1142.44 28.20 28.20 3.70 0.40
 69372287 17269 0 15000 839.00 0.00 -9.84 0.00 182.60 266.00 0.9400 0.1400 1217.60 0.000 0.010 0.000 6.20 0.000 47.9481621 -97.1727448 114.300 108.400 282.9 22.190 24.000 2.500 65.46 59.230 80.12 88.37 77.99 78.18 1127.74 1190.93 1143.34 1152.05 28.20 28.20 3.60 0.40
 69372288 17269 0 16000 837.00 0.00 4.70 0.00 182.60 266.00 0.9200 0.1000 1217.70 0.000 0.030 -0.010 6.20 0.000 47.9481583 -97.1727448 114.300 108.400 282.9 22.190 24.000 2.430 65.47 59.260 81.02 89.47 78.90 79.04 1133.36 1201.31 1152.82 1162.02 28.20 28.20 3.60 0.40
 69372289 17269 0 16001 837.00 0.00 19.78 0.00 182.50 266.00 1.0200 0.1400 1219.00 0.000 0.010 0.010 6.20 0.000 47.9481583 -97.1727448 114.300 108.400 282.9 22.240 24.000 2.460 65.48 59.280 81.90 90.35 79.80 79.96 1139.10 1210.22 1162.26 1168.60 28.20 28.20 3.60 0.40
 69372290 17269 0 17000 835.70 0.00 -13.65 0.00 182.50 266.00 1.0300 0.1000 1178.20 0.000 0.010 0.000 6.20 0.000 47.9481583 -97.1727448 114.300 108.400 282.9 22.240 24.000 2.430 64.49 59.310 82.82 91.43 80.66 80.86 1144.44 1217.57 1168.24 1173.92 28.20 28.20 3.60 0.30
 69372291 17269 0 19000 835.80 0.00 -60.06 0.00 182.40 266.00 1.0400 0.1300 1070.40 0.000 -0.020 0.000 6.20 0.000 47.9481583 -97.1727448 114.300 108.400 282.9 22.240 24.000 2.280 61.97 59.340 83.72 92.36 81.56 81.78 1137.27 1209.42 1158.13 1166.91 28.20 28.20 3.60 0.40
 69372292 17269 0 20000 835.80 0.00 -46.01 0.00 182.40 266.00 1.0800 0.1500 989.60 0.000 -0.020 -0.010 6.20 0.000 47.9481583 -97.1727448 114.300 108.400 282.9 22.240 24.000 2.220 60.31 59.360 84.67 93.30 82.48 82.71 1124.89 1189.61 1138.70 1150.60 28.20 28.20 3.50 0.40
 69372293 17269 0 20001 834.40 0.00 -33.04 0.00 182.40 266.00 1.1300 0.1100 935.10 0.000 0.020 -0.010 6.20 0.000 47.9481583 -97.1727371 114.300 108.400 282.9 22.240 24.000 2.150 59.18 59.390 85.68 94.38 83.50 83.79 1111.37 1167.30 1119.13 1132.33 28.20 28.20 3.50 0.30
 69372294 17269 0 21000 833.60 0.00 -21.72 0.00 182.30 266.00 1.1100 0.1800 964.20 0.000 0.010 0.000 6.20 0.000 47.9481583 -97.1727371 114.300 108.400 282.9 22.240 24.000 2.130 59.95 59.410 86.63 95.44 84.44 84.76 1096.87 1146.16 1099.35 1114.75 28.20 28.20 3.50 0.30
 69372295 17269 0 23000 832.90 0.00 -1.22 0.00 182.40 266.00 1.0300 0.1300 1001.60 0.000 -0.030 -0.010 6.20 0.000 47.9481583 -97.1727371 114.300 108.400 282.9 22.240 24.000 2.130 60.76 59.440 87.57 96.46 85.41 85.73 1083.42 1131.23 1083.82 1099.76 28.20 28.20 3.50 0.40
 69372296 17269 0 24000 832.00 0.00 14.18 0.00 182.30 266.00 1.0300 0.1200 1017.90 0.000 0.010 -0.010 6.20 0.000 47.9481583 -97.1727371 114.300 108.400 282.9 22.260 24.000 2.120 61.07 59.470 88.51 97.49 86.36 86.71 1073.68 1121.25 1072.43 1089.18 28.20 28.20 3.40 0.30
 69372297 17269 0 24001 831.10 0.00 8.17 0.00 182.30 266.00 1.0400 0.1300 1026.00 0.000 0.000 0.000 6.20 0.000 47.9481583 -97.1727371 114.300 108.400 282.9 22.260 24.000 2.160 61.25 59.500 89.48 98.44 87.28 87.67 1066.35 1113.43 1064.18 1082.55 28.20 28.20 3.40 0.30
 69372298 17269 0 25000 831.10 0.00 15.61 0.00 182.30 266.00 1.0300 0.1400 1026.60 0.000 -0.010 0.000 6.20 0.000 47.9481506 -97.1727371 114.300 108.400 282.9 22.240 24.000 2.120 61.22 59.520 90.43 99.45 88.23 88.65 1060.14 1108.85 1058.89 1077.93 28.20 28.20 3.40 0.40
 69372299 17269 0 27000 827.40 0.00 21.08 0.00 182.30 266.00 1.0700 0.1500 1028.20 0.000 0.010 0.000 6.20 0.000 47.9481506 -97.1727371 114.300 108.400 282.9 22.240 24.000 2.140 61.23 59.550 91.38 100.45 89.18 89.60 1056.29 1105.75 1054.00 1074.26 28.20 28.20 3.40 0.30
 69372300 17269 0 28000 827.30 0.00 2.23 0.00 182.30 266.00 1.0300 0.1200 1027.90 0.000 0.000 0.000 6.20 0.000 47.9481506 -97.1727371 114.300 108.400 282.9 22.260 24.000 2.150 61.27 59.580 92.42 101.54 90.24 90.70 1053.55 1103.48 1049.25 1071.87 28.20 28.20 3.50 0.40
 69372301 17269 0 28001 827.40 0.00 14.72 0.00 182.30 266.00 1.0300 0.1200 1033.60 0.000 -0.010 -0.010 6.20 0.000 47.9481506 -97.1727371 114.300 108.400 282.9 22.240 24.000 2.110 61.32 59.610 93.31 102.49 91.14 91.65 1049.87 1101.30 1045.28 1070.56 28.20 28.20 3.40 0.30
 69372302 17269 0 30000 827.80 0.00 5.55 0.00 182.20 266.00 1.0900 0.1300 1031.60 0.000 0.010 0.000 6.20 0.000 47.9481506 -97.1727295 114.300 108.400 282.9 22.260 24.000 2.160 61.37 59.640 94.44 103.76 92.25 92.84 1047.51 1100.17 1042.96 1069.06 28.20 28.20 3.40 0.30
 69372303 17269 0 31000 828.00 0.00 8.11 0.00 182.20 266.00 1.0300 0.1000 1035.70 0.000 -0.010 0.000 6.20 0.000 47.9481506 -97.1727371 114.300 108.400 282.9 22.260 24.000 2.090 61.34 59.700 96.29 105.62 94.13 94.76 1046.57 1099.67 1041.18 1067.10 28.20 28.20 3.40 0.30
 69372304 17269 0 32000 828.00 0.00 -4.46 0.00 182.20 266.00 1.0400 0.1400 1034.80 0.000 -0.020 -0.010 6.20 0.000 47.9481506 -97.1727371 114.300 108.400 282.9 22.260 24.000 2.150 61.36 59.730 97.25 106.63 95.19 95.74 1047.17 1097.84 1041.30 1067.18 28.20 28.20 3.40 0.40
 69372305 17269 0 34000 828.00 0.00 -8.43 0.00 182.20 266.00 1.0700 0.1300 1040.20 0.000 0.020 0.000 6.20 0.000 47.9481506 -97.1727371 114.300 108.400 282.9 22.240 24.000 2.130 61.45 59.750 98.23 107.60 96.15 96.75 1047.07 1096.07 1041.00 1066.85 28.20 28.20 3.30 0.30
 69372306 17269 0 34001 830.80 0.00 -13.45 0.00 182.20 266.00 1.0100 0.1100 1041.20 0.000 -0.030 0.000 6.20 0.000 47.9481583 -97.1727371 114.300 108.400 282.9 22.260 24.000 2.160 61.51 59.780 99.15 108.61 97.10 97.74 1046.67 1095.12 1041.13 1067.26 28.20 28.20 3.40 0.30
 69372307 17269 0 35000 829.50 0.00 -5.38 0.00 182.20 266.00 1.0100 0.1200 1037.40 0.000 0.000 0.000 6.20 0.000 47.9481506 -97.1727371 114.300 108.400 282.9 22.240 24.000 2.130 61.45 59.810 100.21 109.69 98.09 98.87 1047.02 1095.34 1042.02 1067.89 28.20 28.20 3.40 0.40
 69372308 17269 0 37000 829.00 0.00 -11.84 0.00 182.20 266.00 1.0200 0.1200 1038.20 0.000 0.000 0.000 6.20 0.000 47.9481583 -97.1727371 114.300 108.400 282.9 22.240 24.000 2.120 61.35 59.840 101.23 110.70 99.19 100.02 1046.46 1095.77 1042.41 1068.24 28.20 28.20 3.30 0.30
 69372309 17269 0 37001 829.80 0.00 1.94 0.00 182.20 266.00 1.0000 0.1200 1038.00 0.000 0.000 0.000 6.20 0.000 47.9481506 -97.1727371 114.300 108.400 282.9 22.240 24.000 2.120 61.39 59.870 101.58 111.03 99.52 100.33 1045.20 1095.54 1042.23 1067.74 28.20 28.20 3.30 0.30
 69372310 17269 0 38000 828.90 0.00 -2.39 0.00 182.20 266.00 0.9800 0.1300 1037.60 0.000 -0.010 0.000 6.20 0.000 47.9481506 -97.1727371 114.300 108.400 282.9 22.190 24.000 2.140 61.42 59.890 102.30 111.82 100.17 101.09 1044.37 1096.27 1042.36 1067.87 28.20 28.20 3.30 0.30
 69372311 17269 0 40000 828.30 0.00 -15.04 0.00 182.20 266.00 0.9900 0.0800 1044.90 0.000 -0.010 0.000 6.20 0.000 47.9481506 -97.1727371 114.300 108.400 282.9 22.240 24.000 2.160 61.48 59.920 103.19 112.75 101.20 102.07 1043.77 1097.30 1041.71 1069.15 28.20 28.20 3.40 0.30
 69372312 17269 0 40001 827.60 0.00 6.77 0.00 182.30 266.00 1.0000 0.1500 1044.40 0.000 0.000 0.000 6.20 0.000 47.9481506 -97.1727295 114.300 108.400 282.9 22.190 24.000 2.150 61.55 59.950 104.15 113.71 102.14 103.07 1043.65 1097.83 1041.17 1068.81 28.20 28.20 3.30 0.30
 69372313 17269 0 41000 828.10 0.00 15.60 0.00 182.20 266.00 0.9800 0.0800 1039.90 0.000 0.000 -0.020 6.20 0.000 47.9481583 -97.1727295 114.300 108.400 282.9 22.240 24.000 2.170 61.41 59.980 105.05 114.61 102.99 104.09 1043.50 1098.26 1041.39 1068.31 28.20 28.20 3.30 0.30
 69372314 17269 0 43000 829.30 0.00 15.99 0.00 182.20 266.00 0.9900 0.1200 1041.70 0.000 0.000 0.000 6.20 0.000 47.9481506 -97.1727295 114.300 108.400 282.9 22.190 24.000 2.150 61.33 60.010 106.03 115.66 104.05 105.17 1043.42 1098.22 1041.89 1067.33 28.20 28.20 3.30 0.30
 69372315 17269 0 43001 828.90 0.00 14.56 0.00 182.20 266.00 0.9700 0.1200 1034.80 0.000 -0.010 0.000 6.20 0.000 47.9481506 -97.1727371 114.300 108.400 282.9 22.190 24.000 2.150 61.26 60.040 107.05 116.72 105.09 106.16 1044.21 1098.37 1040.81 1067.54 28.20 28.20 3.20 0.30
 69372316 17269 0 44000 829.10 0.00 -3.37 0.00 182.20 266.00 0.9900 0.1000 1035.00 0.000 0.030 -0.010 6.20 0.000 47.9481506 -97.1727371 114.300 108.400 282.9 22.190 24.000 2.140 61.31 60.060 107.92 117.61 105.88 107.13 1044.19 1099.40 1037.97 1069.06 28.20 28.20 3.30 0.30
 69372317 17269 0 46000 829.20 0.00 12.97 0.00 182.20 266.00 0.9900 0.1000 1039.90 0.000 -0.010 -0.010 6.20 0.000 47.9481583 -97.1727371 114.300 108.400 282.9 22.190 24.000 2.190 61.34 60.090 108.80 118.52 106.80 108.09 1044.08 1099.70 1036.54 1069.98 28.20 28.20 3.20 0.30
 69372318 17269 0 46001 829.50 0.00 30.95 0.00 182.20 266.00 0.9800 0.0900 1038.80 0.000 0.020 0.000 6.20 0.000 47.9481583 -97.1727371 114.300 108.400 282.9 22.190 24.000 2.160 61.36 60.120 109.80 119.60 107.91 109.19 1044.67 1099.18 1036.98 1070.98 28.20 28.20 3.30 0.30
 69372319 17269 0 48000 828.80 0.00 1.47 0.00 182.20 266.00 0.9600 0.1300 1039.70 0.000 -0.020 0.010 6.20 0.000 47.9481506 -97.1727371 114.300 108.400 282.9 22.190 24.000 2.180 61.37 60.150 110.78 120.60 108.90 110.23 1045.44 1099.02 1038.13 1071.33 28.20 28.20 3.20 0.30
 69372320 17269 0 49000 827.30 0.00 7.49 0.00 182.20 266.00 0.9700 0.0900 1041.20 0.000 0.010 0.000 6.20 0.000 47.9481506 -97.1727371 114.300 108.400 282.9 22.240 24.000 2.130 61.36 60.180 111.68 121.54 109.85 111.32 1045.65 1099.71 1039.06 1071.19 28.20 28.20 3.20 0.30
 69372321 17269 0 49001 827.40 0.00 14.11 0.00 182.20 266.00 0.9900 0.1000 1044.10 0.000 0.000 0.000 6.00 0.000 47.9481506 -97.1727295 114.300 108.400 282.9 22.190 24.000 2.150 61.50 60.200 112.60 122.50 110.67 112.24 1045.43 1099.77 1039.91 1070.89 28.20 28.20 3.30 0.30
 69372322 17269 0 51000 827.30 0.00 -11.06 0.00 182.20 266.00 0.9600 0.1400 1042.00 0.000 0.010 0.000 6.00 0.000 47.9481506 -97.1727295 114.300 108.400 282.9 22.190 24.000 2.180 61.40 60.230 113.48 123.45 111.67 113.23 1046.00 1100.86 1041.26 1070.24 28.20 28.20 3.20 0.30
 69372323 17269 0 51001 827.30 0.00 -19.95 0.00 182.20 266.00 0.9800 0.0500 1044.10 0.000 -0.020 0.000 6.00 0.000 47.9481506 -97.1727295 114.300 108.400 282.9 22.240 24.000 2.190 61.39 60.260 114.41 124.38 112.59 114.20 1046.38 1102.43 1041.86 1070.64 28.20 28.20 3.20 0.30
 69372324 17269 0 52000 827.10 0.00 28.75 0.00 182.10 266.00 1.0000 0.1100 1039.90 0.000 -0.030 0.000 6.00 0.000 47.9481506 -97.1727295 114.300 108.400 282.9 22.190 24.000 2.110 61.30 60.290 115.31 125.33 113.48 115.16 1046.39 1104.37 1041.87 1071.59 28.20 28.20 3.20 0.30
 69372325 17269 0 54000 826.70 0.00 30.33 0.00 182.20 266.00 0.9900 0.1300 1043.00 0.000 0.040 0.000 6.00 0.000 47.9481506 -97.1727295 114.300 108.400 282.9 22.240 24.000 2.100 61.42 60.310 116.21 126.15 114.40 116.18 1046.79 1105.09 1041.44 1072.81 28.20 28.20 3.20 0.30
 69372326 17269 0 54001 828.10 0.00 -23.52 0.00 182.20 266.00 0.9700 0.0900 1048.30 0.000 0.000 0.000 6.00 0.000 47.9481583 -97.1727295 114.300 108.400 282.9 22.240 24.000 2.150 61.52 60.350 117.06 127.18 115.31 117.25 1047.39 1105.79 1040.58 1073.98 28.20 28.20 3.20 0.30
 69372327 17269 0 56000 828.10 0.00 -42.91 0.00 182.20 266.00 0.9800 0.1500 1054.70 0.000 0.000 0.000 6.00 0.000 47.9481583 -97.1727295 114.300 108.400 282.9 22.260 24.000 2.140 61.61 60.370 118.03 128.24 116.20 118.22 1047.60 1106.54 1040.86 1075.64 28.20 28.20 3.20 0.30
 69372328 17269 0 56001 828.20 0.00 -20.09 0.00 182.20 266.00 0.9600 0.1100 1050.20 0.000 -0.010 0.000 6.00 0.000 47.9481583 -97.1727295 114.300 108.400 282.9 22.260 24.000 2.120 61.56 60.400 118.95 129.19 117.22 119.22 1047.26 1106.64 1041.56 1076.41 28.20 28.20 3.20 0.30
 69372329 17269 0 57000 828.10 0.00 -6.23 0.00 182.20 266.00 0.9400 0.1200 1047.80 0.000 0.000 0.000 6.00 0.000 47.9481583 -97.1727295 114.300 108.400 282.9 22.260 24.000 2.120 61.50 60.430 119.84 130.11 118.03 120.19 1047.56 1106.44 1042.31 1076.89 28.20 28.20 3.20 0.30
 69372330 17269 0 59000 828.10 0.00 4.54 0.00 182.10 266.00 0.9700 0.1200 1047.00 0.000 0.020 0.000 6.00 0.000 47.9481583 -97.1727295 114.300 108.400 282.9 22.240 24.000 2.200 61.46 60.460 120.74 131.01 118.92 121.16 1048.08 1106.79 1043.27 1076.62 28.20 28.20 3.10 0.30
 69372331 17269 0 59001 828.50 0.00 -2.44 0.00 182.10 266.00 0.9700 0.1400 1047.90 0.000 0.000 0.000 6.00 0.000 47.9481583 -97.1727295 114.300 108.400 282.9 22.240 24.000 2.190 61.47 60.490 121.57 131.96 119.90 122.15 1048.78 1106.30 1044.19 1076.64 28.20 28.20 3.20 0.30
 69372332 17269 0 61000 826.10 0.00 -4.07 0.00 182.10 266.00 0.9400 0.1200 1042.20 0.000 -0.010 0.000 6.00 0.000 47.9481583 -97.1727295 114.300 108.400 282.9 22.240 24.000 2.150 61.36 60.520 122.40 132.86 120.79 123.19 1050.38 1106.77 1045.12 1076.74 28.20 28.20 3.20 0.30
 69372333 17269 0 61001 826.00 0.00 10.95 0.00 182.10 266.00 0.9800 0.1500 1044.50 0.000 0.000 0.000 6.00 0.000 47.9481506 -97.1727295 114.300 108.400 282.9 22.240 24.000 2.170 61.38 60.550 123.30 133.78 121.63 124.06 1051.94 1107.31 1045.80 1076.41 28.20 28.20 3.20 0.30
 69372334 17269 0 63000 825.70 0.00 -6.70 0.00 182.10 266.00 1.0000 0.1300 1046.70 0.000 0.000 -0.010 6.00 0.000 47.9481506 -97.1727295 114.300 108.400 282.9 22.240 24.000 2.170 61.34 60.580 124.24 134.78 122.60 125.08 1051.59 1108.01 1045.61 1077.13 28.20 28.20 3.10 0.30
 69372335 17269 0 63001 825.40 0.00 -0.35 0.00 182.10 266.00 0.9900 0.1300 1050.20 0.000 -0.020 0.000 6.00 0.000 47.9481506 -97.1727295 114.300 108.400 282.9 22.240 24.000 2.120 61.49 60.600 125.01 135.62 123.39 125.98 1051.47 1108.77 1045.67 1077.60 28.20 28.20 3.10 0.30
 69372336 17269 0 64000 825.20 0.00 9.77 0.00 182.10 266.00 0.9900 0.1200 1051.60 0.000 0.020 0.000 6.00 0.000 47.9481506 -97.1727295 114.300 108.400 282.9 22.240 24.000 2.180 61.52 60.630 125.87 136.58 124.33 126.98 1051.27 1109.55 1046.30 1078.05 28.20 28.20 3.10 0.30
 69372337 17269 0 66000 824.70 0.00 5.92 0.00 182.10 266.00 1.0000 0.1200 1056.30 0.000 -0.010 0.000 6.00 0.000 47.9481506 -97.1727295 114.300 108.400 282.9 22.240 24.000 2.150 61.58 60.660 126.74 137.50 125.21 127.98 1051.52 1110.47 1046.60 1078.56 28.20 28.20 3.20 0.30
 69372338 17269 0 66001 826.30 0.00 8.36 0.00 182.10 266.00 0.9800 0.1200 1059.50 0.000 -0.030 0.000 6.00 0.000 47.9481506 -97.1727295 114.300 108.400 282.9 22.240 24.000 2.120 61.61 60.690 127.59 138.40 126.04 128.98 1051.48 1111.35 1047.01 1078.73 28.20 28.20 3.10 0.30
 69372339 17269 0 68000 826.10 0.00 -0.69 0.00 182.10 266.00 1.0100 0.1100 1059.60 0.000 0.020 -0.020 6.00 0.000 47.9481583 -97.1727295 114.300 108.400 282.9 22.240 24.000 2.130 61.63 60.720 128.41 139.29 126.94 129.82 1052.19 1112.02 1047.30 1079.54 28.20 28.20 3.10 0.30
 69372340 17269 0 68001 826.10 0.00 -0.09 0.00 182.10 266.00 1.0300 0.1500 1058.20 0.000 0.000 0.000 6.00 0.000 47.9481583 -97.1727295 114.300 108.400 282.9 22.240 24.000 2.110 61.64 60.750 129.25 140.16 127.75 130.77 1053.12 1111.45 1047.15 1081.09 28.20 28.20 3.10 0.30
 69372341 17269 0 70000 826.00 0.00 -0.62 0.00 182.10 266.00 0.9900 0.1300 1060.40 0.000 0.000 -0.010 6.00 0.000 47.9481583 -97.1727295 114.300 108.400 282.9 22.240 24.000 2.140 61.68 60.780 130.02 141.04 128.51 131.67 1054.97 1111.68 1048.04 1082.97 28.20 28.20 3.10 0.30
 69372342 17269 0 70001 825.90 0.00 -1.02 0.00 182.10 266.00 0.9800 0.1000 1059.70 0.000 0.000 -0.010 6.00 0.000 47.9481583 -97.1727295 114.300 108.400 282.9 22.240 24.000 2.080 61.68 60.810 130.83 141.89 129.35 132.60 1055.79 1112.28 1049.84 1083.85 28.20 28.20 3.10 0.30
 69372343 17269 0 72000 826.30 0.00 -0.04 0.00 182.10 266.00 1.0200 0.1200 1061.40 0.000 0.010 0.000 6.00 0.000 47.9481583 -97.1727295 114.300 108.400 282.9 22.240 24.000 2.110 61.66 60.840 131.63 142.80 130.26 133.47 1055.43 1112.96 1050.77 1084.17 28.20 28.20 3.10 0.30
 69372344 17269 0 72001 824.70 0.00 0.00 0.00 182.10 266.00 1.0000 0.1200 1061.90 0.000 -0.010 0.010 6.00 0.000 47.9481583 -97.1727295 114.300 108.400 282.9 22.260 24.000 2.110 61.63 60.870 132.41 143.64 131.06 134.49 1056.13 1113.69 1051.54 1083.94 28.20 28.20 3.10 0.30
 69372345 17269 0 74000 825.00 0.00 -3.30 0.00 182.10 266.00 1.0000 0.1500 1055.90 0.000 -0.010 -0.010 6.00 0.000 47.9481583 -97.1727295 114.300 108.400 282.9 22.240 24.000 2.120 61.50 60.900 133.22 144.50 131.88 135.33 1057.23 1114.21 1052.95 1084.22 28.20 28.20 3.10 0.30
 69372346 17269 0 74001 825.10 0.00 0.38 0.00 182.10 266.00 1.0000 0.1100 1053.30 0.000 0.000 -0.010 6.00 0.000 47.9481583 -97.1727295 114.300 108.400 282.9 22.240 24.000 2.130 61.45 60.930 134.01 145.36 132.68 136.20 1058.15 1114.63 1053.36 1084.64 28.20 28.20 3.10 0.30
 69372347 17269 0 76000 825.10 0.00 0.43 0.00 182.10 266.00 1.0100 0.1400 1050.30 0.000 0.000 -0.010 6.00 0.000 47.9481583 -97.1727295 114.300 108.400 282.9 22.240 24.000 2.160 61.41 60.960 134.79 146.24 133.52 137.11 1058.02 1114.76 1053.22 1084.85 28.20 28.20 3.10 0.30
 69372348 17269 0 76001 825.20 0.00 -9.03 0.00 182.20 266.00 1.0000 0.1100 1053.60 0.000 0.010 0.000 6.00 0.000 47.9481583 -97.1727295 114.300 108.400 282.9 22.190 24.000 2.120 61.45 60.990 135.65 147.17 134.34 138.09 1058.25 1114.86 1052.56 1085.00 28.20 28.20 3.00 0.30
 69372349 17269 0 78000 824.60 0.00 -1.87 0.00 182.20 266.00 0.9900 0.1400 1056.60 0.000 -0.010 0.000 6.00 0.000 47.9481583 -97.1727295 114.300 108.400 282.9 22.240 24.000 2.110 61.46 61.020 136.46 148.08 135.24 139.01 1058.91 1115.26 1051.23 1085.23 28.20 28.20 3.10 0.30
 69372350 17269 0 78001 826.20 0.00 4.73 0.00 182.20 266.00 0.9900 0.1300 1057.80 0.000 0.010 -0.010 5.80 0.000 47.9481583 -97.1727295 114.300 108.400 282.9 22.240 24.000 2.100 61.53 61.050 137.21 148.90 136.05 139.98 1058.76 1115.45 1051.44 1085.90 28.20 28.20 3.00 0.30
 69372351 17269 0 80000 826.00 0.00 2.62 0.00 182.20 266.00 0.9700 0.1300 1057.50 0.000 -0.040 0.000 5.80 0.000 47.9481583 -97.1727295 114.300 108.400 282.9 22.240 24.000 2.150 61.52 61.090 137.97 149.74 136.83 140.79 1058.49 1115.56 1052.08 1087.02 28.20 28.20 3.10 0.30
 69372352 17269 0 80001 826.10 0.00 0.13 0.00 182.20 266.00 0.9600 0.1600 1060.90 0.000 0.000 0.000 5.80 0.000 47.9481583 -97.1727295 114.300 108.400 282.9 22.260 24.000 2.100 61.61 61.120 138.15 149.93 137.01 141.07 1058.56 1115.65 1051.84 1086.70 28.20 28.20 3.10 0.30
 69372353 17269 0 82000 826.00 0.00 0.00 0.00 182.20 266.00 0.9700 0.1300 1058.80 0.000 0.010 0.000 5.80 0.000 47.9481621 -97.1727295 114.300 108.400 282.9 22.260 24.000 2.140 61.55 61.150 138.66 150.57 137.51 141.70 1058.95 1116.38 1052.82 1087.23 28.20 28.20 3.10 0.30
 69372354 17269 0 82001 826.00 0.00 5.37 0.00 182.20 266.00 0.9600 0.1900 1059.00 0.000 0.010 0.000 5.80 0.000 47.9481621 -97.1727295 114.300 108.400 282.9 22.260 24.000 2.090 61.53 61.180 139.39 151.37 138.31 142.54 1059.38 1117.74 1053.77 1087.64 28.20 28.20 3.00 0.30
 69372355 17269 0 84000 826.20 0.00 -2.04 0.00 182.20 266.00 0.9700 0.1400 1062.80 0.000 0.000 0.000 5.80 0.000 47.9481583 -97.1727295 114.300 108.400 282.9 22.240 24.000 2.130 61.55 61.210 140.07 152.19 139.10 143.39 1060.03 1118.05 1053.90 1088.61 28.20 28.20 3.00 0.30
 69372356 17269 0 84001 823.70 0.00 -11.46 0.00 182.20 266.00 0.9800 0.1500 1061.00 0.000 0.000 0.000 5.80 0.000 47.9481583 -97.1727295 114.300 108.400 282.9 22.240 24.000 2.140 61.56 61.250 140.82 153.03 139.87 144.33 1060.48 1119.01 1054.02 1089.69 28.20 28.20 3.10 0.30
 69372357 17269 0 86000 823.90 0.00 -0.79 0.00 182.20 266.00 0.9800 0.1300 1059.90 0.000 -0.020 0.000 5.80 0.000 47.9481583 -97.1727295 114.300 108.400 282.9 22.260 24.000 2.170 61.52 61.280 141.67 153.95 140.63 145.20 1060.46 1120.00 1054.62 1090.23 28.20 28.20 3.10 0.30
 69372358 17269 0 86001 823.70 0.00 -0.02 0.00 182.20 266.00 1.0000 0.1600 1057.90 0.000 0.020 -0.010 6.00 0.000 47.9481506 -97.1727295 114.300 108.400 282.9 22.240 24.000 2.150 61.52 61.310 142.34 154.68 141.36 146.00 1060.74 1120.74 1055.67 1090.92 28.20 28.20 3.00 0.30
 69372359 17269 0 88000 823.60 0.00 13.83 0.00 182.10 266.00 1.0000 0.1600 1059.50 0.000 0.000 -0.020 6.00 0.000 47.9481506 -97.1727295 114.300 108.400 282.9 22.240 24.000 2.110 61.52 61.340 143.08 155.57 142.15 146.86 1060.94 1122.02 1056.77 1091.09 28.20 28.20 3.00 0.30
 69372360 17269 0 88001 823.30 0.00 2.88 0.00 182.20 266.00 0.9900 0.1800 1055.20 0.000 -0.010 0.000 6.00 0.000 47.9481506 -97.1727295 114.300 108.400 282.9 22.240 24.000 2.180 61.32 61.370 143.85 156.42 143.02 147.74 1061.01 1122.63 1056.85 1091.99 28.20 28.20 3.00 0.20
 69372361 17269 0 90000 823.60 0.00 7.16 0.00 182.20 266.00 1.0100 0.1400 1055.50 0.000 -0.010 0.000 6.00 0.000 47.9481506 -97.1727295 114.300 108.400 282.9 22.240 24.000 2.120 61.33 61.410 144.57 157.20 143.70 148.55 1060.77 1122.76 1057.01 1093.20 28.20 28.20 3.10 0.30
 69372362 17269 0 90001 825.90 0.00 15.65 0.00 182.20 266.00 1.0100 0.1500 1056.40 0.000 0.000 0.000 6.00 0.000 47.9481583 -97.1727295 114.300 108.400 282.9 22.240 24.000 2.110 61.40 61.440 145.30 158.00 144.53 149.49 1062.25 1122.48 1057.69 1093.43 28.20 28.20 3.00 0.30
 69372363 17269 0 92000 825.70 0.00 4.48 0.00 182.20 266.00 0.9800 0.1500 1056.80 0.000 0.000 -0.010 6.00 0.000 47.9481583 -97.1727295 114.300 108.400 282.9 22.240 24.000 2.110 61.45 61.470 145.99 158.82 145.28 150.30 1063.25 1121.95 1058.49 1093.11 28.20 28.20 3.00 0.30
 69372364 17269 0 92001 825.90 0.00 -11.04 0.00 182.20 266.00 1.0200 0.1400 1059.80 0.000 0.010 0.000 6.00 0.000 47.9481583 -97.1727295 114.300 108.400 282.9 22.240 24.000 2.170 61.50 61.510 146.67 159.60 145.93 151.05 1063.23 1122.07 1059.63 1092.91 28.20 28.20 3.00 0.20
 69372365 17269 0 94000 826.00 0.00 -15.81 0.00 182.20 266.00 1.0100 0.1400 1058.50 0.000 0.000 0.000 6.00 0.000 47.9481583 -97.1727295 114.300 108.400 282.9 22.240 24.000 2.140 61.41 61.540 147.37 160.40 146.76 151.85 1063.14 1122.23 1059.96 1092.73 28.20 28.20 3.00 0.30
 69372366 17269 0 94001 826.10 0.00 -10.62 0.00 182.20 266.00 1.0000 0.1800 1059.10 0.000 0.020 0.000 6.00 0.000 47.9481583 -97.1727295 114.300 108.400 282.9 22.260 24.000 2.120 61.38 61.570 148.05 161.19 147.46 152.66 1063.36 1122.27 1060.89 1093.46 28.20 28.20 3.00 0.30
 69372367 17269 0 95000 825.70 0.00 2.65 0.00 182.20 266.00 0.9200 0.1900 1060.90 0.000 -0.030 -0.010 6.00 0.000 47.9481583 -97.1727371 114.300 108.400 282.9 22.260 24.000 2.160 61.46 61.610 148.72 161.95 148.17 153.46 1063.73 1122.21 1061.92 1093.18 28.20 28.20 3.00 0.30
 69372368 17269 0 97000 824.10 0.00 6.16 0.00 182.20 266.00 0.9900 0.1800 1061.60 0.000 0.010 0.010 6.00 0.000 47.9481583 -97.1727371 114.300 108.400 282.9 22.260 24.000 2.120 61.48 61.640 149.41 162.75 148.90 154.29 1062.96 1123.11 1062.48 1092.58 28.20 28.20 3.00 0.30
 69372369 17269 0 97001 824.40 0.00 11.81 0.00 182.20 266.00 0.9900 0.1300 1060.10 0.000 0.000 0.000 6.00 0.000 47.9481583 -97.1727295 114.300 108.400 282.9 22.240 24.000 2.110 61.48 61.670 150.16 163.63 149.69 155.26 1062.27 1124.58 1062.32 1092.08 28.20 28.20 3.00 0.30
 69372370 17269 0 99000 824.40 0.00 4.25 0.00 182.20 266.00 0.9600 0.2300 1061.90 0.000 -0.020 0.000 6.00 0.000 47.9481583 -97.1727295 114.300 108.400 282.9 22.240 24.000 2.180 61.51 61.710 150.78 164.35 150.27 155.90 1061.60 1125.23 1061.78 1091.99 28.20 28.20 2.90 0.20
 69372371 17269 0 99001 824.30 0.00 23.95 0.00 182.00 266.00 1.0200 0.1200 1061.50 0.000 0.010 -0.010 6.00 0.000 47.9481583 -97.1727371 114.300 108.400 282.9 22.190 24.000 2.150 61.44 61.740 151.42 165.10 150.97 156.65 1061.99 1126.04 1062.35 1092.56 28.20 28.20 3.00 0.30
 69372372 17269 0 101000 824.20 0.00 8.38 0.00 182.00 266.00 1.0300 0.2100 1062.70 0.000 0.010 0.010 6.00 0.000 47.9481583 -97.1727371 114.300 108.400 282.9 22.190 24.000 2.100 61.47 61.770 152.17 165.98 151.76 157.51 1063.10 1126.04 1063.22 1093.56 28.20 28.20 3.00 0.30
 69372373 17269 0 101001 824.90 0.00 -13.07 0.00 182.10 266.00 1.0200 0.2300 1068.00 0.000 0.020 0.000 6.00 0.000 47.9481583 -97.1727295 114.300 108.400 282.9 22.240 24.000 2.110 61.54 61.810 152.77 166.67 152.39 158.26 1063.95 1125.92 1064.16 1094.71 28.20 28.20 2.80 0.30
 69372374 17269 0 102000 824.90 0.00 -4.05 0.00 182.10 266.00 1.0000 0.1500 1068.30 0.000 0.000 0.000 6.00 0.000 47.9481583 -97.1727371 114.300 108.400 282.9 22.190 24.000 2.110 61.53 61.840 153.49 167.52 153.13 159.11 1065.47 1126.24 1064.48 1095.48 28.20 28.20 2.90 0.20
 69372375 17269 0 104000 824.40 0.00 -15.81 0.00 182.10 266.00 1.0100 0.2400 1069.90 0.000 -0.020 0.000 6.00 0.000 47.9481583 -97.1727371 114.300 108.400 282.9 22.240 24.000 2.090 61.60 61.880 154.17 168.29 153.94 159.96 1066.12 1127.09 1063.85 1096.87 28.20 28.20 3.00 0.30
 69372376 17269 0 104001 824.20 0.00 -61.67 0.00 182.10 266.00 1.0500 0.2600 1074.50 0.000 0.000 0.000 6.00 0.000 47.9481583 -97.1727371 114.300 108.400 282.9 22.240 24.000 2.130 61.68 61.910 154.81 169.07 154.62 160.67 1066.94 1127.96 1064.69 1097.70 28.20 28.20 2.90 0.30
 69372377 17269 0 106000 824.10 0.00 -4.94 0.00 182.10 266.00 1.0200 0.1800 1077.20 0.000 -0.010 -0.010 6.00 0.000 47.9481583 -97.1727371 114.300 108.400 282.9 22.190 24.000 2.120 61.72 61.950 155.44 169.83 155.30 161.45 1068.14 1129.04 1065.96 1097.69 28.20 28.20 2.90 0.30
 69372378 17269 0 106001 823.90 0.00 11.65 0.00 182.20 266.00 1.0400 0.2300 1079.90 0.000 0.000 0.010 6.00 0.000 47.9481583 -97.1727371 114.300 108.400 282.9 22.240 24.000 2.140 61.82 61.980 156.07 170.62 155.92 162.19 1068.22 1130.43 1066.24 1098.54 28.20 28.20 2.90 0.30
 69372379 17269 0 107000 823.80 0.00 15.70 0.00 182.10 266.00 1.0400 0.1800 1074.00 0.000 0.030 0.000 6.00 0.000 47.9481583 -97.1727371 114.300 108.400 282.9 22.240 24.000 2.100 61.69 62.020 156.73 171.36 156.68 162.96 1068.90 1131.34 1066.22 1099.10 28.20 28.20 2.90 0.20
 69372380 17269 0 109000 824.30 0.00 12.50 0.00 182.20 266.00 0.9700 0.1900 1062.40 0.000 -0.020 0.000 6.00 0.000 47.9481583 -97.1727371 114.300 108.400 282.9 22.240 24.000 2.150 61.44 62.050 157.36 172.10 157.32 163.74 1069.55 1132.00 1066.06 1098.72 28.20 28.20 2.90 0.30
 69372381 17269 0 109001 824.70 0.00 11.73 0.00 182.20 266.00 0.9900 0.1900 1059.50 0.000 0.010 0.010 6.00 0.000 47.9481583 -97.1727371 114.300 108.400 282.9 22.240 24.000 2.130 61.34 62.090 157.99 172.82 157.92 164.45 1069.98 1132.82 1065.52 1098.46 28.20 28.20 2.90 0.30
 69372382 17269 0 111000 824.80 0.00 10.57 0.00 182.10 266.00 1.0000 0.1200 1060.10 0.000 -0.010 0.000 6.00 0.000 47.9481583 -97.1727371 114.300 108.400 282.9 22.240 24.000 2.100 61.30 62.120 158.59 173.56 158.66 165.27 1069.20 1132.78 1063.90 1098.61 28.20 28.20 2.90 0.20
 69372383 17269 0 112000 824.80 0.00 -11.04 0.00 182.20 266.00 0.9900 0.1800 1062.90 0.000 -0.010 0.000 6.00 0.000 47.9481506 -97.1727371 114.300 108.400 282.9 22.240 24.000 2.170 61.33 62.160 159.20 174.32 159.28 165.94 1068.87 1132.31 1063.59 1097.92 28.20 28.20 2.80 0.20
 69372384 17269 0 112001 824.90 0.00 -10.97 0.00 182.20 266.00 1.0200 0.1800 1065.40 0.000 0.000 0.000 6.00 0.000 47.9481506 -97.1727371 114.300 108.400 282.9 22.240 24.000 2.110 61.37 62.190 159.83 175.05 159.97 166.69 1068.76 1131.74 1064.10 1097.37 28.20 28.20 2.90 0.20
 69372385 17269 0 114000 824.40 0.00 -5.27 0.00 182.20 266.00 1.0000 0.1500 1068.30 0.000 0.000 0.000 6.00 0.000 47.9481506 -97.1727371 114.300 108.400 282.9 22.240 24.000 2.120 61.46 62.230 160.40 175.78 160.55 167.40 1068.09 1131.88 1063.92 1097.03 28.20 28.20 2.90 0.30
 69372386 17269 0 114001 824.00 0.00 3.69 0.00 182.20 266.00 1.0200 0.1600 1067.50 0.000 0.020 0.000 6.00 0.000 47.9481506 -97.1727371 114.300 108.400 282.9 22.240 24.000 2.120 61.44 62.270 161.01 176.52 161.20 168.13 1067.65 1133.01 1064.15 1096.83 28.20 28.20 2.90 0.30
 69372387 17269 0 115000 824.00 0.00 13.21 0.00 182.20 266.00 0.9700 0.1400 1062.50 0.000 0.010 0.000 6.00 0.000 47.9481583 -97.1727371 114.300 108.400 282.9 22.240 24.000 2.120 61.41 62.300 161.63 177.23 161.89 168.86 1067.62 1133.77 1063.55 1097.46 28.20 28.20 2.80 0.20
 69372388 17269 0 117000 824.00 0.00 19.33 0.00 182.20 266.00 0.9600 0.1900 1062.70 0.000 0.000 0.000 6.00 0.000 47.9481583 -97.1727371 114.300 108.400 282.9 22.240 24.000 2.130 61.37 62.340 162.23 177.95 162.54 169.62 1068.15 1134.42 1063.25 1097.69 28.20 28.20 2.80 0.20
 69372389 17269 0 117001 824.00 0.00 16.32 0.00 182.20 266.00 1.0000 0.1400 1061.90 0.000 0.020 -0.010 6.00 0.000 47.9481583 -97.1727371 114.300 108.400 282.9 22.260 24.000 2.100 61.32 62.370 162.82 178.68 163.08 170.29 1068.60 1133.99 1063.32 1097.21 28.20 28.20 2.90 0.20
 69372390 17269 0 119000 824.00 0.00 16.01 0.00 182.20 266.00 1.0100 0.2000 1063.10 0.000 -0.010 0.010 6.00 0.000 47.9481583 -97.1727371 114.300 108.400 282.9 22.300 24.000 2.100 61.30 62.410 163.38 179.39 163.74 171.03 1068.89 1133.86 1063.77 1096.38 28.20 28.20 2.90 0.30
 69372391 17269 0 120000 824.50 0.00 -16.76 0.00 182.30 266.00 1.0000 0.2100 1071.70 0.000 -0.010 0.000 6.00 0.000 47.9481583 -97.1727371 114.300 108.400 282.9 22.300 24.000 2.150 61.52 62.450 164.07 180.19 164.47 171.81 1068.60 1133.79 1064.89 1096.49 28.20 28.20 2.80 0.30
 69372392 17269 0 120001 824.30 0.00 -75.57 0.00 182.30 266.00 1.0200 0.2500 1076.40 0.000 -0.010 0.000 6.00 0.000 47.9481583 -97.1727371 114.300 108.400 282.9 22.300 24.000 2.090 61.58 62.490 164.60 180.86 165.04 172.47 1069.14 1133.04 1065.60 1096.86 28.20 28.20 2.90 0.20
 69372393 17269 0 122000 824.20 0.00 -15.58 0.00 182.20 266.00 1.0100 0.2400 1074.30 0.000 0.020 -0.020 6.00 0.000 47.9481583 -97.1727371 114.300 108.400 282.9 22.260 24.000 2.100 61.50 62.520 165.25 181.64 165.77 173.19 1069.33 1133.55 1066.34 1098.18 28.20 28.20 2.80 0.20
 69372394 17269 0 123000 824.10 0.00 43.95 0.00 182.30 266.00 1.0000 0.2700 1076.90 0.000 0.000 -0.010 6.00 0.000 47.9481583 -97.1727371 114.300 108.400 282.9 22.260 24.000 2.120 61.55 62.560 165.93 182.37 166.44 174.02 1070.29 1133.78 1067.77 1099.14 28.20 28.20 2.80 0.20
 69372395 17269 0 123001 824.10 0.00 20.27 0.00 182.30 266.00 1.0000 0.2100 1083.60 0.000 -0.010 -0.010 5.80 0.000 47.9481583 -97.1727371 114.300 108.400 282.9 22.260 24.000 2.090 61.66 62.600 166.41 183.08 167.04 174.73 1072.48 1133.41 1069.39 1100.11 28.20 28.20 2.90 0.30
 69372396 17269 0 125000 824.10 0.00 8.77 0.00 182.30 266.00 1.0100 0.2000 1086.50 0.000 0.000 0.000 5.80 0.000 47.9481583 -97.1727371 114.300 108.400 282.9 22.240 24.000 2.110 61.75 62.640 166.97 183.78 167.63 175.34 1074.42 1133.31 1071.09 1100.59 28.20 28.20 2.80 0.20
 69372397 17269 0 126000 823.40 0.00 -43.71 0.00 182.30 266.00 1.0100 0.1900 1079.90 0.000 -0.010 0.010 5.80 0.000 47.9481583 -97.1727371 114.300 108.400 282.9 22.240 24.000 2.100 61.62 62.670 167.55 184.48 168.18 176.01 1076.89 1133.84 1072.39 1100.33 28.20 28.20 2.80 0.20
 69372398 17269 0 126001 823.30 0.00 -23.11 0.00 182.30 266.00 1.0200 0.1900 1070.90 0.000 0.000 0.000 5.80 0.000 47.9481506 -97.1727371 114.300 108.400 282.9 22.190 24.000 2.100 61.38 62.710 168.08 185.14 168.84 176.72 1078.07 1135.42 1073.00 1100.87 28.20 28.20 2.80 0.20
 69372399 17269 0 127000 823.30 0.00 -3.55 0.00 182.30 266.00 1.0000 0.1800 1064.40 0.000 0.020 0.010 5.80 0.000 47.9481506 -97.1727371 114.300 108.400 282.9 22.190 24.000 2.120 61.22 62.750 168.69 185.84 169.44 177.37 1076.85 1135.82 1073.33 1102.12 28.20 28.20 2.90 0.20
 69372400 17269 0 129000 823.20 0.00 31.78 0.00 182.30 266.00 0.9200 0.1900 1065.90 0.000 -0.010 0.000 5.80 0.000 47.9481506 -97.1727371 114.300 108.400 282.9 22.190 24.000 2.100 61.29 62.790 169.24 186.53 170.04 178.05 1075.79 1135.04 1073.43 1102.76 28.20 28.20 2.90 0.30
 69372401 17269 0 129001 823.00 0.00 -8.31 0.00 182.30 266.00 0.9600 0.1900 1065.10 0.000 -0.010 0.000 5.80 0.000 47.9481506 -97.1727371 114.300 108.400 282.9 22.190 24.000 2.090 61.27 62.820 169.78 187.19 170.58 178.74 1075.48 1134.76 1073.03 1102.77 28.20 28.20 2.80 0.20
 69372402 17269 0 130000 822.90 0.00 -2.05 0.00 182.30 266.00 1.0000 0.1600 1062.60 0.000 -0.010 0.010 5.80 0.000 47.9481506 -97.1727371 114.300 108.400 282.9 22.190 24.000 2.140 61.20 62.860 170.32 187.88 171.22 179.45 1075.26 1135.24 1072.63 1102.28 28.20 28.20 2.80 0.20
 69372403 17269 0 132000 839.00 0.00 -0.11 0.00 182.20 266.00 1.0300 0.1500 1064.60 0.000 0.010 0.000 5.80 0.000 47.9481583 -97.1727295 114.300 108.400 282.9 22.190 24.000 2.120 61.26 62.900 170.84 188.55 171.82 180.12 1074.50 1136.07 1071.45 1101.25 28.20 28.20 2.80 0.20
 69372404 17269 0 133000 837.60 0.00 9.17 0.00 182.30 266.00 1.0200 0.1900 1062.70 0.000 0.010 0.000 5.80 0.000 47.9481583 -97.1727295 114.300 108.400 282.9 22.190 24.000 2.140 61.18 62.940 171.48 189.23 172.41 180.78 1074.12 1136.20 1070.73 1100.48 28.20 28.20 2.80 0.20
 69372405 17269 0 133001 838.60 0.00 41.06 0.00 182.30 266.00 0.9300 0.2300 1065.40 0.000 -0.020 -0.010 5.80 0.000 47.9481583 -97.1727295 114.300 108.400 282.9 22.190 24.000 2.130 61.20 62.980 171.94 189.88 173.00 181.42 1073.62 1135.25 1069.92 1100.79 28.20 28.20 2.80 0.30
 69372406 17269 0 135000 838.80 0.00 29.38 0.00 182.30 266.00 0.9400 0.1600 1062.10 0.000 -0.030 0.000 5.80 0.000 47.9481583 -97.1727295 114.300 108.400 282.9 22.190 24.000 2.140 61.16 63.020 171.90 189.91 172.93 181.44 1072.10 1134.66 1068.61 1101.66 28.20 28.20 2.70 0.20
 69372407 17269 0 136000 838.90 0.00 57.79 0.00 182.30 266.00 0.9700 0.1800 1063.20 0.000 0.020 0.010 5.80 0.000 47.9481583 -97.1727295 114.300 108.400 282.9 22.190 24.000 2.110 61.21 63.060 172.74 191.00 173.93 182.39 1070.93 1135.16 1068.09 1102.92 28.20 28.20 2.70 0.20
 69372408 17269 0 136001 839.00 0.00 62.97 0.00 182.20 266.00 1.0300 0.2200 1060.70 0.000 0.010 -0.010 5.80 0.000 47.9481583 -97.1727295 114.300 108.400 282.9 22.190 24.000 2.120 61.18 63.090 172.94 191.20 174.05 182.72 1069.93 1134.71 1066.41 1102.14 28.20 28.20 2.80 0.20
 69372409 17269 0 137000 838.00 0.00 11.65 0.00 182.30 266.00 0.9800 0.2000 1061.60 0.000 -0.010 0.000 5.80 0.000 47.9481583 -97.1727295 114.300 108.400 282.9 22.190 24.000 2.140 61.19 63.130 173.21 191.67 174.45 183.11 1071.08 1133.86 1066.17 1101.07 28.20 28.20 2.80 0.20
 69372410 17269 0 139000 839.80 0.00 -14.52 0.00 182.20 266.00 1.0100 0.1400 1064.70 0.000 0.010 0.000 5.80 0.000 47.9481583 -97.1727295 114.300 108.400 282.9 22.190 24.000 2.120 61.24 63.170 173.70 192.32 174.94 183.72 1071.88 1133.18 1066.58 1099.77 28.20 28.20 2.80 0.20
 69372411 17269 0 140000 839.90 0.00 -3.04 0.00 182.20 266.00 1.0400 0.2500 1066.90 0.000 0.000 0.000 5.80 0.000 47.9481583 -97.1727295 114.300 108.400 282.9 22.190 24.000 2.100 61.24 63.210 174.27 192.96 175.56 184.40 1072.02 1132.85 1066.15 1099.06 28.20 28.20 2.80 0.20
 69372412 17269 0 140001 840.10 0.00 -2.60 0.00 182.30 266.00 1.0100 0.2100 1065.90 0.000 0.000 0.000 5.80 0.000 47.9481583 -97.1727295 114.300 108.400 282.9 22.190 24.000 2.130 61.13 63.250 174.86 193.69 176.20 185.12 1071.86 1133.08 1066.69 1100.03 28.20 28.20 2.80 0.20
 69372413 17269 0 141000 840.00 0.00 -7.68 0.00 182.20 266.00 1.0100 0.1600 1068.00 0.000 0.010 -0.020 5.80 0.000 47.9481659 -97.1727219 114.300 108.400 282.9 22.190 24.000 2.090 61.22 63.290 175.39 194.28 176.79 185.72 1072.61 1133.52 1067.10 1099.67 28.20 28.20 2.80 0.20
 69372414 17269 0 143000 836.70 0.00 -35.19 0.00 182.30 266.00 0.9700 0.2400 1069.10 0.000 -0.010 0.000 5.80 0.000 47.9481659 -97.1727829 114.300 108.400 282.9 22.150 24.000 2.130 61.26 63.330 175.82 194.92 177.23 186.27 1073.32 1133.21 1067.24 1099.02 28.20 28.20 2.80 0.20
 69372415 17269 0 144000 837.40 0.00 -24.79 0.00 182.20 266.00 1.0000 0.1900 1067.30 0.000 -0.010 -0.010 5.80 0.000 47.9481659 -97.1727982 114.300 108.400 282.9 22.190 24.000 2.130 61.23 63.370 176.36 195.61 177.89 186.94 1074.42 1133.17 1068.51 1098.92 28.20 28.20 2.80 0.20
 69372416 17269 0 144001 836.80 0.00 -8.29 0.00 182.20 266.00 1.0200 0.2300 1066.20 0.000 0.000 0.000 5.80 0.000 47.9481697 -97.1727982 114.300 108.400 282.9 22.190 24.000 2.110 61.22 63.410 176.91 196.21 178.43 187.58 1074.85 1133.75 1069.26 1098.54 28.20 28.20 2.70 0.20
 69372417 17269 0 145000 833.90 0.00 -15.19 0.00 182.20 266.00 0.9800 0.2100 1059.40 0.000 -0.020 0.000 5.80 0.000 47.9481621 -97.1727982 114.300 108.400 282.9 22.190 24.000 2.120 61.08 63.450 177.40 196.87 179.00 188.19 1075.02 1133.97 1069.52 1098.15 28.20 28.20 2.70 0.20
 69372418 17269 0 147000 834.00 0.00 -1.88 0.00 182.10 266.00 1.0000 0.2100 1061.90 0.000 0.010 0.000 5.80 0.000 47.9481621 -97.1727982 114.300 108.400 282.9 22.190 24.000 2.080 61.08 63.490 177.97 197.50 179.54 188.85 1074.43 1133.81 1069.73 1097.84 28.20 28.20 2.70 0.20
 69372419 17269 0 148000 834.00 0.00 17.21 0.00 182.20 266.00 0.9900 0.2100 1066.50 0.000 0.000 0.010 5.80 0.000 47.9481621 -97.1727982 114.300 108.400 282.9 22.190 24.000 2.100 61.20 63.530 178.29 198.04 179.98 189.33 1073.65 1132.97 1070.25 1096.97 28.20 28.20 2.80 0.20
 69372420 17269 0 148001 834.00 0.00 -1.06 0.00 182.20 266.00 0.9600 0.1900 1062.00 0.000 -0.010 0.000 5.50 0.000 47.9481621 -97.1727982 114.300 108.400 282.9 22.190 24.000 2.130 61.00 63.580 178.87 198.67 180.51 189.93 1073.67 1133.08 1070.23 1096.05 28.20 28.20 2.80 0.20
 69372421 17269 0 149000 833.60 0.00 -0.27 0.00 182.20 266.00 0.9900 0.1900 1057.70 0.000 0.020 -0.010 5.50 0.000 47.9481621 -97.1727753 114.300 108.400 282.9 22.150 24.000 2.090 60.97 63.620 179.39 199.35 181.13 190.58 1073.33 1132.80 1069.90 1095.14 28.20 28.20 2.70 0.20
 69372422 17269 0 151000 837.20 0.00 15.75 0.00 182.30 266.00 0.9800 0.1800 1060.10 0.000 -0.010 -0.010 5.50 0.000 47.9481621 -97.1727829 114.300 108.400 282.9 22.150 24.000 2.100 61.07 63.660 179.91 200.01 181.66 191.26 1071.87 1132.63 1069.07 1095.36 28.20 28.20 2.70 0.20
 69372423 17269 0 152000 839.20 0.00 1.89 0.00 182.30 266.00 1.0100 0.1600 1057.80 0.000 0.010 0.000 5.50 0.000 47.9481621 -97.1727753 114.300 108.400 282.9 22.150 24.000 2.130 61.03 63.700 180.42 200.64 182.19 191.82 1071.58 1131.87 1068.32 1095.62 28.20 28.20 2.80 0.20
 69372424 17269 0 152001 839.60 0.00 29.06 0.00 182.20 266.00 1.0200 0.2100 1057.90 0.000 0.020 0.000 5.50 0.000 47.9481621 -97.1727753 114.300 108.400 282.9 22.150 24.000 2.150 60.99 63.740 180.84 201.10 182.74 192.34 1071.70 1131.44 1067.74 1094.82 28.20 28.20 2.80 0.20
 69372425 17269 0 153000 839.80 0.00 11.35 0.00 182.30 266.00 0.9300 0.1600 1061.60 0.000 0.000 -0.010 5.50 0.000 47.9481621 -97.1727676 114.300 108.400 282.9 22.190 24.000 2.100 61.08 63.780 181.31 201.76 183.21 192.91 1071.67 1131.16 1066.76 1093.18 28.20 28.20 2.80 0.20
 69372426 17269 0 154000 840.20 0.00 -0.32 0.00 182.30 266.00 0.9100 0.1200 1063.10 0.000 -0.010 0.000 5.50 0.000 47.9481621 -97.1727676 114.300 108.400 282.9 22.150 24.000 2.160 61.06 63.820 181.79 202.36 183.77 193.50 1070.95 1132.52 1066.60 1093.21 28.20 28.20 2.70 0.20
 69372427 17269 0 156000 840.70 0.00 -23.14 0.00 182.10 266.00 1.0000 0.2000 1059.70 0.000 -0.020 -0.020 5.50 0.000 47.9481621 -97.1727753 114.300 108.400 282.9 22.150 24.000 2.110 60.99 63.860 182.27 202.94 184.27 194.06 1070.52 1133.46 1067.18 1093.57 28.20 28.20 2.70 0.20
 69372428 17269 0 157000 836.90 0.00 -32.73 0.00 182.10 266.00 1.0000 0.2300 1058.60 0.000 -0.010 0.010 5.50 0.000 47.9481621 -97.1727676 114.300 108.400 282.9 22.150 24.000 2.150 61.01 63.910 182.74 203.54 184.71 194.61 1070.14 1133.75 1067.33 1093.97 28.20 28.20 2.80 0.20
 69372429 17269 0 157001 836.80 0.00 -37.76 0.00 182.20 266.00 1.0000 0.1500 1064.60 0.000 -0.010 -0.010 5.50 0.000 47.9481621 -97.1727829 114.300 108.400 282.9 22.190 24.000 2.080 61.18 63.950 183.21 204.13 185.30 195.20 1070.27 1133.92 1066.52 1093.66 28.20 28.20 2.80 0.20
 69372430 17269 0 158000 836.70 0.00 -18.78 0.00 182.20 266.00 0.9100 0.1500 1064.10 0.000 0.000 0.000 5.50 0.000 47.9481621 -97.1727829 114.300 108.400 282.9 22.190 24.000 2.080 61.11 63.990 183.70 204.73 185.80 195.80 1070.78 1134.62 1066.57 1093.98 28.20 28.20 2.80 0.20
 69372431 17269 0 159000 836.30 0.00 -8.06 0.00 182.20 266.00 0.9700 0.1900 1061.60 0.000 -0.030 0.000 5.50 0.000 47.9481621 -97.1727829 114.300 108.400 282.9 22.190 24.000 2.090 61.02 64.030 184.13 205.31 186.30 196.29 1071.21 1134.76 1066.69 1095.27 28.20 28.20 2.70 0.20
 69372432 17269 0 161000 836.00 0.00 -10.43 0.00 182.20 266.00 1.0000 0.1200 1063.30 0.000 -0.030 0.000 5.50 0.000 47.9481621 -97.1727829 114.300 108.400 282.9 22.150 24.000 2.100 61.05 64.070 184.61 205.93 186.78 196.89 1070.95 1134.73 1067.45 1096.32 28.20 28.20 2.70 0.20
 69372433 17269 0 162000 835.80 0.00 8.02 0.00 182.30 266.00 1.0100 0.1300 1065.70 0.000 0.010 0.010 5.50 0.000 47.9481659 -97.1727676 114.300 108.400 282.9 22.190 24.000 2.140 61.08 64.120 185.16 206.58 187.39 197.57 1071.18 1134.26 1067.79 1097.51 28.20 28.20 2.70 0.20
 69372434 17269 0 162001 839.60 0.00 35.53 0.00 182.30 266.00 1.0100 0.1300 1071.90 0.000 0.010 -0.010 5.50 0.000 47.9481659 -97.1727753 114.300 108.400 282.9 22.190 24.000 2.150 61.22 64.160 185.55 207.03 187.76 198.01 1071.68 1134.13 1067.98 1097.44 28.20 28.20 2.80 0.20
 69372435 17269 0 163000 839.60 0.00 16.76 0.00 182.20 266.00 0.9400 0.1300 1072.80 0.000 0.000 -0.010 5.50 0.000 47.9481621 -97.1727524 114.300 108.400 282.9 22.240 24.000 2.140 61.24 64.200 185.98 207.55 188.29 198.55 1072.78 1135.98 1068.68 1097.38 28.20 28.20 2.70 0.20
 69372436 17269 0 164000 840.00 0.00 -6.52 0.00 182.20 266.00 0.9700 0.1800 1074.10 0.000 -0.010 0.000 5.50 0.000 47.9481621 -97.1727524 114.300 108.400 282.9 22.240 24.000 2.110 61.26 64.250 186.37 208.14 188.73 199.02 1074.60 1137.45 1069.19 1097.67 28.20 28.20 2.70 0.20
 69372437 17269 0 166000 838.50 0.00 -12.17 0.00 182.20 266.00 0.9400 0.1600 1074.80 0.000 -0.030 0.000 5.50 0.000 47.9481773 -97.1727371 114.300 108.400 282.9 22.240 24.000 2.090 61.31 64.290 186.78 208.72 189.24 199.54 1075.86 1138.53 1070.84 1097.58 28.20 28.20 2.70 0.20
 69372438 17269 0 167000 838.50 0.00 -11.77 0.00 182.10 266.00 1.0000 0.1800 1074.00 0.000 0.000 0.000 5.50 0.000 47.9481773 -97.1727371 114.300 108.400 282.9 22.260 24.000 2.120 61.26 64.330 187.24 209.27 189.69 200.11 1076.60 1138.80 1071.97 1097.55 28.20 28.20 2.80 0.20
 69372439 17269 0 168000 838.40 0.00 -1.29 0.00 182.20 266.00 1.0000 0.1800 1072.30 0.000 0.000 0.000 5.50 0.000 47.9481773 -97.1727371 114.300 108.400 282.9 22.260 24.000 2.100 61.24 64.380 187.66 209.81 190.16 200.63 1077.35 1139.40 1071.96 1097.81 28.20 28.20 2.70 0.20
 69372440 17269 0 168001 839.30 0.00 -1.28 0.00 182.20 266.00 1.0300 0.1800 1070.30 0.000 0.010 0.010 5.50 0.000 47.9481773 -97.1727371 114.300 108.400 282.9 22.300 24.000 2.130 61.19 64.420 188.07 210.36 190.65 201.12 1078.17 1140.24 1071.93 1099.05 28.20 28.20 2.70 0.20
 69372441 17269 0 169000 840.70 0.00 13.41 0.00 182.20 266.00 1.0200 0.1900 1072.50 0.000 0.000 0.000 5.50 0.000 47.9481773 -97.1727371 114.300 108.400 282.9 22.300 24.000 2.110 61.27 64.470 188.56 210.95 191.15 201.72 1078.62 1141.12 1072.42 1100.57 28.20 28.20 2.70 0.20
 69372442 17269 0 170000 840.80 0.00 -5.65 0.00 182.20 266.00 1.0500 0.1600 1073.60 0.000 0.010 0.000 5.50 0.000 47.9481773 -97.1727371 114.300 108.400 282.9 22.340 24.000 2.140 61.29 64.510 188.98 211.45 191.60 202.24 1079.20 1141.26 1073.21 1100.42 28.20 28.20 2.70 0.20
 69372443 17269 0 171000 840.90 0.00 28.68 0.00 182.20 266.00 1.0200 0.2100 1079.50 0.000 0.000 0.000 5.50 0.000 47.9481773 -97.1727448 114.300 108.400 282.9 22.340 24.000 2.090 61.43 64.560 189.39 212.00 192.09 202.77 1079.29 1141.41 1073.39 1100.54 28.20 28.20 2.70 0.20
 69372444 17269 0 173000 841.10 0.00 19.94 0.00 182.20 266.00 1.0200 0.1500 1074.40 0.000 0.010 -0.010 5.50 0.000 47.9481735 -97.1727448 114.300 108.400 282.9 22.340 24.000 2.120 61.25 64.610 189.81 212.63 192.55 203.26 1079.83 1142.41 1073.39 1101.28 28.20 28.20 2.70 0.20
 69372445 17269 0 174000 841.70 0.00 -1.87 0.00 182.20 266.00 1.0300 0.1800 1074.80 0.000 0.040 0.000 5.50 0.000 47.9481773 -97.1727371 114.300 108.400 282.9 22.340 24.000 2.090 61.26 64.660 190.25 213.16 193.02 203.76 1081.16 1143.60 1073.99 1101.94 28.20 28.20 2.70 0.20
 69372446 17269 0 175000 841.10 0.00 -42.70 0.00 182.30 266.00 1.0500 0.1900 1078.40 0.000 -0.010 0.000 5.50 0.000 47.9481735 -97.1727371 114.300 108.400 282.9 22.380 24.000 2.090 61.35 64.700 190.64 213.69 193.50 204.26 1081.62 1143.68 1075.31 1102.27 28.20 28.20 2.70 0.20
 69372447 17269 0 176000 839.10 0.00 -37.82 0.00 182.30 266.00 1.0300 0.1600 1076.20 0.000 0.030 0.000 5.50 0.000 47.9481773 -97.1727371 114.300 108.400 282.9 22.380 24.000 2.130 61.32 64.740 191.11 214.27 194.03 204.78 1081.55 1144.50 1076.51 1103.25 28.20 28.20 2.70 0.20
 69372448 17269 0 176001 838.90 0.00 -5.46 0.00 182.30 266.00 0.9600 0.1500 1073.80 0.000 -0.010 0.000 5.50 0.000 47.9481773 -97.1727371 114.300 108.400 282.9 22.380 24.000 2.120 61.22 64.800 191.53 214.80 194.43 205.31 1080.49 1145.58 1077.37 1104.26 28.20 28.20 2.70 0.20
 69372449 17269 0 177000 838.50 0.00 -1.37 0.00 182.30 266.00 1.0000 0.1300 1069.50 0.000 0.000 0.000 5.50 0.000 47.9481773 -97.1727371 114.300 108.400 282.9 22.380 24.000 2.120 61.08 64.840 191.99 215.40 194.94 205.85 1079.27 1145.67 1077.49 1104.70 28.20 28.20 2.70 0.20
 69372450 17269 0 178000 840.10 0.00 5.06 0.00 182.30 266.00 0.9900 0.1500 1072.10 0.000 -0.010 0.000 5.50 0.000 47.9481773 -97.1727448 114.300 108.400 282.9 22.380 24.000 2.080 61.18 64.890 192.33 215.80 195.30 206.27 1078.12 1145.47 1078.07 1104.67 28.20 28.20 2.70 0.20
 69372451 17269 0 179000 840.40 0.00 2.94 0.00 182.30 266.00 0.9700 0.1300 1075.20 0.000 -0.020 -0.010 5.50 0.000 47.9481735 -97.1727448 114.300 108.400 282.9 22.340 24.000 2.120 61.24 64.930 192.66 216.32 195.74 206.68 1077.47 1145.80 1077.19 1104.94 28.20 28.20 2.70 0.20
 69372452 17269 0 181000 840.20 0.00 -9.97 0.00 182.30 266.00 0.9900 0.1600 1074.90 0.000 -0.010 0.000 5.50 0.000 47.9481773 -97.1727448 114.300 108.400 282.9 22.380 24.000 2.110 61.23 64.980 193.17 216.97 196.28 207.31 1077.95 1146.10 1076.68 1104.84 28.20 28.20 2.70 0.20
 69372453 17269 0 182000 840.60 0.00 3.56 0.00 182.30 266.00 1.0000 0.1500 1075.10 0.000 0.000 0.000 5.50 0.000 47.9481735 -97.1727448 114.300 108.400 282.9 22.340 24.000 2.090 61.16 65.030 193.51 217.40 196.65 207.71 1078.30 1146.68 1077.73 1104.03 28.20 28.20 2.70 0.20
 69372454 17269 0 183000 840.60 0.00 -21.10 0.00 182.20 266.00 0.9700 0.1100 1074.90 0.000 0.000 -0.010 5.50 0.000 47.9481735 -97.1727448 114.300 108.400 282.9 22.340 24.000 2.100 61.15 65.070 193.91 217.96 197.17 208.20 1079.25 1146.86 1078.49 1104.11 28.20 28.20 2.70 0.20
 69372455 17269 0 184000 840.60 0.00 10.85 0.00 182.30 266.00 1.0100 0.1600 1075.50 0.000 0.010 0.000 5.50 0.000 47.9481735 -97.1727448 114.300 108.400 282.9 22.340 24.000 2.120 61.13 65.120 194.35 218.47 197.64 208.70 1078.86 1146.86 1078.88 1104.38 28.20 28.20 2.70 0.20
 69372456 17269 0 185000 840.60 0.00 6.22 0.00 182.20 266.00 1.0100 0.1400 1076.30 0.000 0.000 -0.020 5.50 0.000 47.9481735 -97.1727448 114.300 108.400 282.9 22.340 24.000 2.090 61.19 65.170 194.73 218.91 198.09 209.19 1079.15 1146.70 1078.12 1104.41 28.20 28.20 2.70 0.20
 69372457 17269 0 185001 840.70 0.00 -6.01 0.00 182.30 266.00 1.0300 0.1800 1079.00 0.000 0.040 0.000 5.50 0.000 47.9481773 -97.1727371 114.300 108.400 282.9 22.300 24.000 2.100 61.25 65.220 195.13 219.50 198.49 209.62 1079.60 1146.86 1078.31 1104.15 28.20 28.20 2.70 0.20
 69372458 17269 0 186000 841.30 0.00 -0.35 0.00 182.30 266.00 0.9600 0.1400 1075.90 0.000 -0.030 0.000 5.50 0.000 47.9481735 -97.1727371 114.300 108.400 282.9 22.300 24.000 2.110 61.18 65.260 195.49 219.95 198.96 210.12 1080.24 1146.96 1078.03 1104.12 28.20 28.20 2.70 0.20
 69372459 17269 0 187000 840.40 0.00 11.87 0.00 182.30 266.00 0.9800 0.1600 1072.90 0.000 -0.010 -0.010 5.50 0.000 47.9481773 -97.1727371 114.300 108.400 282.9 22.300 24.000 2.100 61.14 65.310 195.93 220.48 199.36 210.58 1079.97 1146.76 1078.03 1104.42 28.20 28.20 2.70 0.20
 69372460 17269 0 188000 840.30 0.00 -3.16 0.00 182.30 266.00 1.0100 0.1300 1075.50 0.000 0.000 0.000 5.50 0.000 47.9481773 -97.1727371 114.300 108.400 282.9 22.300 24.000 2.150 61.20 65.360 196.25 220.95 199.78 211.05 1080.45 1146.40 1078.48 1103.99 28.20 28.20 2.60 0.20
 69372461 17269 0 189000 840.30 0.00 10.00 0.00 182.30 266.00 1.0300 0.1000 1075.90 0.000 -0.010 0.000 5.50 0.000 47.9481773 -97.1727371 114.300 108.400 282.9 22.260 24.000 2.140 61.19 65.410 196.61 221.49 200.17 211.47 1080.59 1145.92 1078.36 1104.63 28.20 28.20 2.70 0.20
 69372462 17269 0 190000 840.30 0.00 -7.81 0.00 182.30 266.00 1.0000 0.1400 1076.60 0.000 0.010 0.010 5.50 0.000 47.9481773 -97.1727371 114.300 108.400 282.9 22.260 24.000 2.130 61.20 65.450 197.00 221.91 200.64 211.94 1080.42 1146.91 1078.64 1105.61 28.20 28.20 2.60 0.20
 69372463 17269 0 192000 840.70 0.00 -27.68 0.00 182.30 266.00 0.9600 0.1000 1079.30 0.000 -0.010 0.000 5.50 0.000 47.9481773 -97.1727371 114.300 108.400 282.9 22.260 24.000 2.130 61.28 65.510 197.35 222.43 201.04 212.40 1081.36 1148.46 1078.85 1105.75 28.20 28.20 2.70 0.20
 69372464 17269 0 193000 840.70 0.00 -20.41 0.00 182.30 266.00 0.9800 0.1500 1083.50 0.000 -0.010 0.010 5.50 0.000 47.9481773 -97.1727371 114.300 108.400 282.9 22.260 24.000 2.120 61.36 65.560 197.73 222.90 201.47 212.80 1082.10 1149.63 1079.41 1105.85 28.20 28.20 2.60 0.20
 69372465 17269 0 194000 841.10 0.00 -3.61 0.00 182.30 266.00 0.9900 0.1400 1086.80 0.000 -0.010 -0.010 5.50 0.000 47.9481773 -97.1727371 114.300 108.400 282.9 22.240 24.000 2.120 61.41 65.600 198.10 223.35 201.86 213.24 1082.82 1149.72 1079.57 1106.61 28.20 28.20 2.60 0.20
 69372466 17269 0 195000 841.20 0.00 11.52 0.00 182.20 266.00 1.0100 0.1400 1087.60 0.000 -0.010 -0.010 5.50 0.000 47.9481773 -97.1727371 114.300 108.400 282.9 22.240 24.000 2.100 61.40 65.650 198.46 223.80 202.30 213.67 1083.31 1150.43 1080.03 1107.41 28.20 28.20 2.70 0.20
 69372467 17269 0 196000 841.40 0.00 108.46 0.00 182.30 266.00 0.9900 0.1800 1089.40 0.000 0.000 0.000 5.50 0.000 47.9481773 -97.1727371 114.300 108.400 282.9 22.240 24.000 2.110 61.42 65.700 198.84 224.33 202.72 214.13 1083.81 1151.34 1081.09 1108.14 28.20 28.20 2.70 0.20
 69372468 17269 0 197000 841.50 0.00 20.28 0.00 182.30 266.00 1.0000 0.1400 1088.00 0.000 -0.010 0.010 5.50 0.000 47.9481773 -97.1727371 114.300 108.400 282.9 22.240 24.000 2.090 61.33 65.750 199.18 224.78 203.09 214.55 1084.74 1150.93 1081.08 1108.42 28.20 28.20 2.70 0.20
 69372469 17269 0 198000 842.10 0.00 -32.94 0.00 182.30 266.00 0.9800 0.1500 1086.70 0.000 0.000 0.010 5.50 0.000 47.9481773 -97.1727371 114.300 108.400 282.9 22.190 24.000 2.130 61.32 65.800 199.57 225.20 203.53 215.03 1085.63 1150.70 1081.66 1108.46 28.20 28.20 2.60 0.20
 69372470 17269 0 199000 842.20 0.00 -33.46 0.00 182.20 266.00 0.9600 0.1300 1090.50 0.000 0.000 0.000 5.50 0.000 47.9481773 -97.1727371 114.300 108.400 282.9 22.240 24.000 2.140 61.39 65.850 199.92 225.68 203.94 215.46 1086.22 1151.11 1081.96 1108.97 28.20 28.20 2.70 0.20
 69372471 17269 0 200000 841.10 0.00 -31.93 0.00 182.20 266.00 0.9600 0.1800 1090.20 0.000 0.000 -0.010 5.50 0.000 47.9481773 -97.1727371 114.300 108.400 282.9 22.260 24.000 2.100 61.36 65.900 200.25 226.13 204.34 215.82 1087.93 1151.67 1081.98 1109.54 28.20 28.20 2.70 0.20
 69372472 17269 0 201000 841.00 0.00 32.04 0.00 182.30 266.00 0.9900 0.1800 1088.90 0.000 0.010 -0.010 5.50 0.000 47.9481773 -97.1727371 114.300 108.400 282.9 22.240 24.000 2.100 61.36 65.950 200.69 226.64 204.82 216.31 1088.69 1152.16 1081.71 1109.96 28.20 28.20 2.70 0.20
 69372473 17269 0 202000 840.90 0.00 13.08 0.00 182.30 266.00 1.0100 0.1500 1087.20 0.000 -0.010 0.000 5.50 0.000 47.9481773 -97.1727371 114.300 108.400 282.9 22.260 24.000 2.070 61.33 66.000 200.99 227.07 205.13 216.70 1088.22 1152.56 1081.42 1110.52 28.20 28.20 2.60 0.20
 69372474 17269 0 203000 840.70 0.00 -9.73 0.00 182.30 266.00 1.0100 0.1800 1088.60 0.000 0.010 -0.010 5.50 0.000 47.9481773 -97.1727371 114.300 108.400 282.9 22.260 24.000 2.130 61.37 66.050 201.31 227.46 205.54 217.07 1088.24 1152.82 1081.70 1111.37 28.20 28.20 2.60 0.20
 69372475 17269 0 204000 841.20 0.00 -5.88 0.00 182.30 266.00 0.9600 0.1600 1088.80 0.000 -0.010 -0.010 5.50 0.000 47.9481773 -97.1727371 114.300 108.400 282.9 22.260 24.000 2.100 61.42 66.100 201.64 227.91 205.91 217.49 1088.08 1153.54 1081.99 1111.84 28.20 28.20 2.60 0.20
 69372476 17269 0 204001 841.50 0.00 -15.53 0.00 182.30 266.00 1.0100 0.1500 1088.60 0.000 0.000 0.000 5.50 0.000 47.9481773 -97.1727371 114.300 108.400 282.9 22.240 24.000 2.120 61.39 66.150 202.04 228.37 206.34 217.90 1088.37 1153.60 1082.07 1111.54 28.20 28.20 2.60 0.20
 69372477 17269 0 205000 841.20 0.00 -4.87 0.00 182.30 266.00 1.0100 0.1900 1089.30 0.000 0.000 0.010 5.50 0.000 47.9481773 -97.1727371 114.300 108.400 282.9 22.240 24.000 2.080 61.36 66.200 202.35 228.78 206.70 218.29 1088.45 1154.07 1082.60 1111.52 28.20 28.20 2.70 0.20
 69372478 17269 0 206000 841.10 0.00 -2.10 0.00 182.30 266.00 1.0300 0.1400 1087.70 0.000 0.030 0.000 5.50 0.000 47.9481773 -97.1727371 114.300 108.400 282.9 22.190 24.000 2.110 61.31 66.260 202.67 229.19 207.13 218.73 1087.80 1155.23 1083.02 1111.85 28.20 28.20 2.70 0.20
 69372479 17269 0 207000 840.90 0.00 -12.12 0.00 182.30 266.00 0.9900 0.1600 1086.10 0.000 -0.020 0.000 5.50 0.000 47.9481773 -97.1727371 114.300 108.400 282.9 22.240 24.000 2.090 61.28 66.300 203.03 229.58 207.49 219.11 1087.91 1156.11 1083.09 1112.05 28.20 28.20 2.60 0.20
