# id flight phase time msl_altitude indicated_airspeed vertical_airspeed tas heading course pitch_attitude roll_attitude eng_1_rpm vertical_acceleration longitudinal_acceleration lateral_acceleration oat groundspeed latitude longitude nav_1_freq nav_2_freq obs_1 fuel_quantity_left_main fuel_quantity_right_main eng_1_fuel_flow eng_1_oil_press eng_1_oil_temp eng_1_cht_1 eng_1_cht_2 eng_1_cht_3 eng_1_cht_4 eng_1_egt_1 eng_1_egt_2 eng_1_egt_3 eng_1_egt_4 system_1_volts system_2_volts system_1_amps system_2_amps
#min 5.90181e+08 175755 0 0 0 -0.09 -1460.43 0 0.2 0 -7.09 -36.11 661.6 0 -0.36 -0.13 18.2 0 0 -97.1727 114.3 109.1 15 14.91 19.12 1.24 45.77 84.81 92.66 96.84 89.42 95.91 837.25 794.98 796.49 930.97 25.1 25.2 -11.5 -1.8
#max 5.90187e+08 175755 2.22507e-308 5.513e+06 3798.3 123.67 1157.15 130 360 360 16.16 35.11 2683.1 2.22507e-308 0.77 0.13 30 128.49 48.0598 2.22507e-308 114.3 109.1 354 24 24 15.08 72.57 187.11 383.92 410.88 392.01 399.78 1544.31 1355.15 1438.62 1551.55 28.2 28.2 12.1 0.7
#avg 5.90184e+08 175755 0 2.76109e+06 2043.61 74.7291 0.327463 78.6869 203.745 209.015 2.09472 1.81954 2046.64 0 0.00383562 -0.0032895 22.7364 75.9664 47.9223 -96.8513 114.3 109.1 85.6368 19.5953 22.3091 7.17843 62.1957 168.92 320.988 334.867 334.159 344.446 1346.88 1190.83 1255.72 1364.54 28.0017 28.026 0.637205 0.0315434
#dev 1368.75 0 0 1.37738e+06 859.224 36.4101 227.482 38.5989 90.5089 90.651 2.23118 4.95621 568.87 0 0.0482053 0.0177082 2.60766 36.0027 0.0692108 0.237904 6.82121e-13 1.12408e-11 17.265 2.48268 0.634691 3.2359 4.45275 19.3681 31.8149 32.7024 31.6225 31.4704 174.873 163.933 167.054 165.435 0.15171 0.144498 0.801437 0.0702624
#min delta 1 0 0 1 -825.4 -23.94 -518.23 -25 -358.5 -359.6 -3.71 -16.17 -298.6 0 -0.75 -0.25 -0.3 -5.7 -47.9482 -97.1727 0 0 -331 -0.35 -0.32 -5.8 -4.22 -0.14 -2.23 -2.29 -2.13 -1.94 -54.51 -38.45 -40.67 -38.1 -1.3 -1.1 -10.7 -1
#max delta 1 2.22507e-308 2.22507e-308 2000 822.9 23.14 604.69 23 359.3 359.4 5.32 14.26 816 2.22507e-308 0.71 0.18 0.3 7.27 47.9482 97.1727 2.22507e-308 2.22507e-308 277 0.3 0.39 9.1 14.57 0.41 1.7 1.94 1.64 1.49 98.33 63.21 77.26 56.8 2.3 2.3 15.9 1.2
#avg delta 1 0 0 1007.12 0.00427397 1.69829e-19 0.00197991 0 0.000310502 -0.0168219 0.000136986 -0.000105936 -0.0690228 0 -6.59036e-20 1.82648e-06 -0.000219178 0 -1.38813e-09 3.48311e-08 0 0 -0.0230137 -0.00140274 -0.000423744 -0.000144292 -0.00223927 0.0169078 0.0332183 0.0402411 0.0384274 0.0417881 -0.0283836 0.00409498 -0.015063 -0.0136767 -0.000237443 -0.000219178 0.000219178 -0.000109589
#dev delta 2 0 0 2014.25 4.3959 0.628869 58.5291 0.655708 2.40601 2.21396 0.374848 0.916938 10.2639 0 0.0557589 0.0195968 0.0150009 0.36933 0.0177183 0.035842 0 0 0.269224 0.0341274 0.0374389 0.0804761 0.233016 0.0436874 0.218138 0.245435 0.214147 0.212683 2.54435 1.99918 2.40179 2.28279 0.0179886 0.0307471 0.209676 0.0332854
 590181170 175755 0 0 821.90 0.00 -3.36 0.00 177.90 267.70 1.9600 0.3400 1199.00 0.000 0.010 0.000 30.00 0.000 47.9481964 -97.1727295 114.300 109.100 202.6 24.000 22.240 2.290 61.84 84.820 92.66 96.84 89.42 95.91 1057.16 828.12 933.08 1068.86 28.10 28.10 4.30 0.70
 590181171 175755 0 1 821.90 0.00 -3.36 0.00 177.90 267.70 1.9600 0.3400 1199.00 0.000 0.010 0.000 30.00 0.000 47.9481964 -97.1727295 114.300 109.100 202.6 24.000 22.240 2.290 61.84 84.820 92.66 96.84 89.42 95.91 1057.16 828.12 933.08 1068.86 28.10 28.10 4.30 0.70
 590181172 175755 0 1000 825.40 0.00 37.00 0.00 177.90 267.70 1.9600 0.2500 1201.20 0.000 0.030 -0.010 30.00 0.000 47.9481964 -97.1727295 114.300 109.100 202.6 24.000 22.240 2.300 61.88 84.820 93.41 97.64 90.01 96.64 1061.54 832.84 940.50 1076.30 28.10 28.10 4.30 0.70
 590181173 175755 0 2000 0.00 0.00 48.97 0.00 177.90 00.00 1.9000 0.3100 1201.60 0.000 0.010 -0.010 30.00 0.000 0.0000000 0.0000000 114.300 109.100 202.6 24.000 22.260 2.280 61.83 84.820 93.56 97.89 90.09 96.99 1064.90 836.78 945.26 1080.83 28.00 28.10 4.10 0.60
 590181174 175755 0 3000 822.90 0.00 14.74 0.00 177.90 267.70 1.9100 0.3100 1204.00 0.000 -0.010 0.000 29.80 0.000 47.9481964 -97.1727295 114.300 109.100 202.6 24.000 22.260 2.300 61.90 84.810 93.93 98.30 90.34 97.31 1067.53 842.18 950.09 1085.59 28.10 28.10 4.10 0.60
 590181175 175755 0 4000 821.80 0.00 9.43 0.00 177.80 267.70 1.9400 0.2700 1202.70 0.000 0.020 0.000 29.80 0.000 47.9481964 -97.1727295 114.300 109.100 202.6 24.000 22.260 2.330 61.86 84.810 94.66 99.10 90.94 98.03 1070.41 847.12 955.37 1089.96 28.10 28.10 4.00 0.60
 590181176 175755 0 5000 828.30 0.00 -8.25 0.00 177.90 267.70 1.9000 0.3000 1189.80 0.000 0.030 0.000 29.80 0.000 47.9481926 -97.1727219 114.300 109.100 202.6 24.000 22.260 2.310 61.57 84.810 95.39 99.87 91.58 98.70 1073.86 852.06 960.25 1094.18 28.10 28.10 4.00 0.60
 590181177 175755 0 6000 826.40 0.00 0.23 0.00 177.80 267.70 1.8500 0.2500 1182.10 0.000 -0.010 0.000 29.50 0.000 47.9481964 -97.1727142 114.300 109.100 202.6 24.000 22.260 2.290 61.47 84.810 96.12 100.67 92.18 99.43 1077.44 857.24 965.51 1100.25 28.10 28.10 4.00 0.60
 590181178 175755 0 7000 825.00 0.00 -13.08 0.00 177.80 267.70 1.8700 0.2900 1187.10 0.000 0.020 -0.010 29.50 0.000 47.9481964 -97.1727142 114.300 109.100 202.6 24.000 22.300 2.340 61.58 84.810 96.85 101.42 92.76 100.18 1081.07 862.08 969.34 1104.45 28.10 28.10 3.80 0.60
 590181179 175755 0 8000 824.00 0.00 -31.90 0.00 177.80 267.70 1.8900 0.3000 1192.80 0.000 0.000 -0.010 29.50 0.000 47.9481926 -97.1727142 114.300 109.100 202.6 24.000 22.260 2.300 61.67 84.810 97.68 102.27 93.47 100.98 1085.56 865.74 973.09 1107.21 28.10 28.10 3.70 0.60
 590181180 175755 0 9000 825.80 0.00 -11.05 0.00 177.80 267.70 1.9200 0.2700 1193.20 0.000 0.000 -0.010 29.50 0.000 47.9481926 -97.1727142 114.300 109.100 202.6 24.000 22.300 2.300 61.66 84.810 98.45 103.14 94.17 101.78 1089.21 869.68 977.26 1109.53 28.10 28.10 3.70 0.60
 590181181 175755 0 10000 824.30 0.00 10.38 0.00 177.80 267.70 1.9000 0.3000 1193.20 0.000 0.010 0.000 29.20 0.000 47.9481964 -97.1727066 114.300 109.100 202.6 24.000 22.300 2.300 61.67 84.810 99.21 103.91 94.86 102.52 1093.00 873.50 980.94 1112.89 28.10 28.10 3.80 0.60
 590181182 175755 0 11000 823.80 0.00 0.21 0.00 177.70 267.70 1.8800 0.2700 1192.20 0.000 0.010 -0.010 29.20 0.000 47.9482040 -97.1726913 114.300 109.100 202.6 24.000 22.300 2.260 61.61 84.820 99.99 104.75 95.53 103.31 1098.10 876.92 983.95 1116.14 28.10 28.10 3.70 0.60
 590181183 175755 0 12000 823.10 0.00 -24.40 0.00 177.80 267.70 1.8600 0.3000 1194.80 0.000 0.010 0.000 29.20 0.000 47.9482040 -97.1726913 114.300 109.100 202.6 24.000 22.320 2.260 61.70 84.820 100.75 105.58 96.21 104.07 1103.16 880.27 988.87 1119.41 28.10 28.10 3.60 0.60
 590181184 175755 0 13000 822.10 0.00 -7.09 0.00 177.70 267.70 1.8700 0.2900 1203.00 0.000 -0.010 -0.010 29.20 0.000 47.9482040 -97.1726837 114.300 109.100 202.6 24.000 22.300 2.280 61.86 84.820 101.63 106.50 97.02 105.06 1106.69 884.01 993.01 1123.14 28.10 28.10 3.60 0.60
 590181185 175755 0 14000 820.70 0.00 13.08 0.00 177.70 267.70 1.9200 0.2700 1208.60 0.000 0.030 -0.010 29.20 0.000 47.9482079 -97.1726837 114.300 109.100 202.6 24.000 22.300 2.290 61.93 84.830 102.46 107.38 97.80 105.84 1111.19 887.26 995.75 1125.61 28.10 28.10 3.60 0.50
 590181186 175755 0 15000 818.20 0.00 -3.87 0.00 177.70 267.70 1.8600 0.2900 1207.60 0.000 -0.020 -0.010 29.00 0.000 47.9482079 -97.1726761 114.300 109.100 202.6 24.000 22.300 2.310 61.87 84.830 103.30 108.23 98.50 106.64 1114.57 891.05 997.72 1127.90 28.10 28.10 3.60 0.60
 590181187 175755 0 16000 818.20 0.00 -15.38 0.00 177.70 267.70 1.8700 0.3200 1203.30 0.000 0.020 -0.020 29.00 0.000 47.9482040 -97.1726837 114.300 109.100 202.6 24.000 22.300 2.350 61.80 84.830 104.09 109.08 99.24 107.54 1117.34 894.61 1000.61 1130.75 28.10 28.10 3.50 0.50
 590181188 175755 0 17000 817.50 0.00 10.45 0.00 177.70 267.70 1.8600 0.3100 1205.60 0.000 0.000 0.000 29.00 0.000 47.9482040 -97.1726837 114.300 109.100 202.6 24.000 22.260 2.330 61.85 84.840 105.02 110.04 100.11 108.43 1118.04 897.08 1004.21 1134.62 28.10 28.10 3.50 0.50
 590181189 175755 0 18000 816.90 0.00 -5.51 0.00 177.70 267.70 1.8900 0.2700 1207.40 0.000 0.010 0.000 29.00 0.000 47.9482040 -97.1726837 114.300 109.100 202.6 24.000 22.300 2.270 61.90 84.840 105.91 110.96 100.90 109.32 1119.82 898.81 1006.50 1137.82 28.10 28.10 3.50 0.50
 590181190 175755 0 19000 816.60 0.00 -5.84 0.00 177.70 267.70 1.8900 0.3400 1213.60 0.000 -0.010 -0.010 28.80 0.000 47.9482040 -97.1726837 114.300 109.100 202.6 24.000 22.300 2.310 62.00 84.850 106.80 111.82 101.71 110.16 1122.02 900.90 1009.48 1139.61 28.10 28.10 3.50 0.50
 590181191 175755 0 20000 817.10 0.00 3.02 0.00 177.70 267.70 1.9000 0.3000 1208.30 0.000 -0.010 -0.010 28.80 0.000 47.9482002 -97.1726837 114.300 109.100 202.6 24.000 22.300 2.330 61.86 84.860 107.63 112.73 102.48 110.93 1124.45 903.32 1013.12 1141.26 28.10 28.10 3.50 0.50
 590181192 175755 0 21000 819.00 0.00 33.11 0.00 177.70 267.70 1.8500 0.2900 1202.10 0.000 -0.020 -0.010 28.80 0.000 47.9482002 -97.1726837 114.300 109.100 202.6 24.000 22.300 2.320 61.77 84.860 108.50 113.64 103.28 111.79 1127.81 906.44 1015.31 1143.28 28.10 28.10 3.40 0.50
 590181193 175755 0 22000 818.70 0.00 -2.98 0.00 177.70 267.70 1.8500 0.3300 1205.40 0.000 0.010 0.000 28.80 0.000 47.9482040 -97.1726837 114.300 109.100 202.6 24.000 22.260 2.280 61.88 84.870 109.45 114.63 104.16 112.71 1131.11 910.06 1017.55 1145.60 28.10 28.10 3.40 0.50
 590181194 175755 0 23000 816.90 0.00 -8.23 0.00 177.70 267.70 1.8800 0.3100 1205.80 0.000 -0.020 0.000 28.80 0.000 47.9481812 -97.1726913 114.300 109.100 202.6 24.000 22.260 2.290 61.83 84.880 110.36 115.56 105.04 113.72 1132.49 912.84 1021.67 1147.64 28.10 28.10 3.40 0.50
 590181195 175755 0 24000 822.70 0.00 -13.88 0.00 177.60 267.70 1.8500 0.2700 1211.20 0.000 0.000 -0.010 28.50 0.000 47.9481964 -97.1727142 114.300 109.100 202.6 24.000 22.300 2.290 61.92 84.880 111.27 116.46 105.88 114.54 1135.66 914.55 1024.74 1149.87 28.10 28.10 3.50 0.50
 590181196 175755 0 25000 822.90 0.00 -16.39 0.00 177.70 267.70 1.9000 0.3600 1213.30 0.000 0.030 0.000 28.50 0.000 47.9481926 -97.1727142 114.300 109.100 202.6 24.000 22.260 2.310 61.91 84.890 112.18 117.36 106.73 115.43 1138.09 917.13 1027.27 1152.09 28.10 28.10 3.40 0.50
 590181197 175755 0 26000 823.40 0.00 0.17 0.00 177.60 267.70 1.8700 0.3000 1213.70 0.000 0.000 -0.010 28.50 0.000 47.9481926 -97.1727142 114.300 109.100 202.6 24.000 22.300 2.300 61.90 84.900 113.18 118.36 107.69 116.38 1141.13 920.07 1030.22 1154.37 28.10 28.10 3.20 0.50
 590181198 175755 0 27000 821.80 0.00 19.59 0.00 177.60 267.70 1.9100 0.3300 1212.30 0.000 -0.010 -0.010 28.50 0.000 47.9481926 -97.1727142 114.300 109.100 202.6 24.000 22.260 2.300 61.87 84.910 114.13 119.32 108.58 117.36 1144.23 922.43 1032.97 1155.84 28.10 28.10 3.30 0.50
 590181199 175755 0 28000 821.70 0.00 -2.01 0.00 177.70 267.70 1.9100 0.3500 1205.50 0.000 0.020 0.000 28.50 0.000 47.9481926 -97.1727142 114.300 109.100 202.6 24.000 22.260 2.300 61.74 84.920 114.52 119.73 108.95 117.82 1146.23 923.98 1035.93 1156.14 28.10 28.10 3.30 0.50
 590181200 175755 0 29000 821.20 0.00 3.02 0.00 177.70 267.70 1.8600 0.3200 1208.70 0.000 -0.030 -0.010 28.50 0.000 47.9481888 -97.1727219 114.300 109.100 202.6 24.000 22.240 2.260 61.82 84.930 115.13 120.33 109.52 118.33 1147.28 925.67 1039.49 1157.37 28.10 28.10 3.30 0.50
 590181201 175755 0 30000 821.20 0.00 13.72 0.00 177.60 267.70 1.8900 0.3200 1210.70 0.000 -0.010 0.000 28.20 0.000 47.9481888 -97.1727219 114.300 109.100 202.6 24.000 22.240 2.270 61.86 84.940 116.07 121.30 110.45 119.23 1148.20 928.24 1041.37 1158.73 28.10 28.10 3.30 0.50
 590181202 175755 0 31000 821.40 0.00 16.76 0.00 177.70 267.70 1.8900 0.3300 1211.70 0.000 -0.010 -0.010 28.20 0.000 47.9481888 -97.1727219 114.300 109.100 202.6 24.000 22.240 2.280 61.90 84.950 117.06 122.31 111.36 120.21 1148.71 930.02 1042.58 1160.46 28.10 28.10 3.30 0.50
 590181203 175755 0 32000 820.40 0.00 -28.46 0.00 177.70 267.70 1.8600 0.3400 1212.80 0.000 -0.020 0.000 28.20 0.000 47.9481888 -97.1727142 114.300 109.100 202.6 24.000 22.240 2.260 61.90 84.960 118.01 123.25 112.29 121.14 1149.54 931.56 1043.44 1162.56 28.10 28.10 3.20 0.40
 590181204 175755 0 33000 822.00 0.00 -8.47 0.00 177.60 267.70 1.8800 0.2500 1216.50 0.000 0.000 0.000 28.20 0.000 47.9481888 -97.1727142 114.300 109.100 202.6 24.000 22.240 2.250 62.00 84.970 118.93 124.19 113.20 122.08 1151.19 933.24 1044.21 1165.87 28.10 28.10 3.30 0.40
 590181205 175755 0 34000 822.40 0.00 9.89 0.00 177.60 267.70 1.8900 0.3100 1216.50 0.000 0.010 -0.010 28.20 0.000 47.9481888 -97.1727219 114.300 109.100 202.6 24.000 22.260 2.260 61.95 84.980 119.88 125.11 114.12 123.01 1153.02 935.77 1045.80 1168.22 28.10 28.10 3.30 0.50
 590181206 175755 0 35000 822.50 0.00 13.93 0.00 177.60 267.70 1.8800 0.3200 1212.90 0.000 -0.010 -0.010 28.20 0.000 47.9481888 -97.1727219 114.300 109.100 202.6 24.000 22.300 2.280 61.82 85.000 120.93 126.12 115.10 124.03 1155.54 938.48 1047.30 1169.52 28.10 28.10 3.20 0.40
 590181207 175755 0 36000 822.60 0.00 8.13 0.00 177.70 267.70 1.9000 0.2900 1211.10 0.000 0.000 0.000 28.00 0.000 47.9481888 -97.1727219 114.300 109.100 202.6 24.000 22.300 2.300 61.81 85.010 121.90 127.14 116.09 125.01 1157.43 941.33 1048.05 1170.24 28.10 28.10 3.20 0.40
 590181208 175755 0 37000 822.90 0.00 -19.48 0.00 177.60 267.70 1.9400 0.2500 1217.70 0.000 0.030 -0.010 28.00 0.000 47.9481888 -97.1727142 114.300 109.100 202.6 24.000 22.300 2.300 61.96 85.020 122.85 128.09 117.00 125.95 1158.97 943.63 1049.42 1170.97 28.10 28.10 3.20 0.40
 590181209 175755 0 38000 823.40 0.00 -50.46 0.00 177.60 267.70 1.8800 0.3500 1224.80 0.000 0.030 0.000 28.00 0.000 47.9481888 -97.1727142 114.300 109.100 202.6 24.000 22.300 2.270 62.08 85.040 123.90 129.10 118.02 126.96 1159.85 945.47 1051.69 1171.73 28.10 28.10 3.20 0.40
 590181210 175755 0 39000 822.20 0.00 68.22 0.00 177.60 267.70 1.8200 0.3300 1232.10 0.000 -0.030 0.000 28.00 0.000 47.9481888 -97.1727142 114.300 109.100 202.6 24.000 22.300 2.240 62.22 85.050 124.90 130.10 119.01 127.98 1162.34 947.10 1054.04 1173.11 28.10 28.10 3.20 0.40
 590181211 175755 0 40000 821.90 0.00 98.60 0.00 177.70 267.70 1.9200 0.3000 1226.50 0.000 0.030 0.000 28.00 0.000 47.9481888 -97.1727142 114.300 109.100 202.6 24.000 22.320 2.220 62.04 85.070 125.85 131.04 119.94 128.91 1164.42 949.54 1055.67 1174.72 28.10 28.10 3.20 0.40
 590181212 175755 0 41000 822.10 0.00 -34.21 0.00 177.70 267.70 1.8600 0.2500 1220.60 0.000 -0.010 0.000 28.00 0.000 47.9481888 -97.1727142 114.300 109.100 202.6 24.000 22.300 2.290 61.91 85.080 126.91 132.09 120.99 129.97 1165.47 951.73 1057.07 1177.16 28.10 28.10 3.10 0.40
 590181213 175755 0 42000 822.20 0.00 -33.99 0.00 177.70 267.70 1.8500 0.3100 1218.10 0.000 -0.010 0.000 28.00 0.000 47.9481888 -97.1727142 114.300 109.100 202.6 24.000 22.320 2.300 61.90 85.100 127.86 133.04 121.93 130.93 1166.89 953.58 1057.63 1178.63 28.10 28.10 3.20 0.40
 590181214 175755 0 43000 822.40 0.00 -13.63 0.00 177.70 267.70 1.8700 0.3500 1217.70 0.000 0.020 -0.010 28.00 0.000 47.9481888 -97.1727142 114.300 109.100 202.6 24.000 22.300 2.290 61.89 85.120 128.84 134.04 122.95 131.88 1166.88 955.48 1058.20 1178.69 28.10 28.10 3.30 0.40
 590181215 175755 0 44000 822.50 0.00 -21.00 0.00 177.60 267.70 1.8700 0.3300 1209.20 0.000 0.000 -0.020 27.80 0.000 47.9481888 -97.1727142 114.300 109.100 202.6 24.000 22.300 2.240 61.73 85.130 129.85 134.99 123.93 132.92 1166.44 957.58 1059.51 1180.10 28.10 28.10 3.10 0.40
 590181216 175755 0 45000 824.30 0.00 15.79 0.00 177.70 267.70 1.8700 0.3600 1205.70 0.000 -0.040 0.000 27.80 0.000 47.9481812 -97.1727142 114.300 109.100 202.6 24.000 22.300 2.290 61.71 85.150 130.83 135.97 124.92 133.89 1166.99 958.14 1061.61 1182.41 28.10 28.10 3.20 0.40
 590181217 175755 0 46000 831.70 0.00 73.52 0.00 177.70 267.70 1.8700 0.3000 1212.90 0.000 0.000 0.000 27.80 0.000 47.9481812 -97.1727219 114.300 109.100 202.6 24.000 22.300 2.330 61.83 85.170 131.79 136.95 125.91 134.85 1167.13 959.65 1062.55 1183.87 28.10 28.10 3.20 0.40
 590181218 175755 0 47000 831.90 0.00 14.52 0.00 177.70 267.70 1.8300 0.3100 1215.90 0.000 0.010 0.000 27.80 0.000 47.9481812 -97.1727219 114.300 109.100 202.6 24.000 22.320 2.330 61.89 85.190 132.78 137.93 126.87 135.82 1166.87 961.05 1064.02 1184.61 28.10 28.10 3.20 0.40
 590181219 175755 0 48000 831.90 0.00 -5.71 0.00 177.70 267.70 1.7800 0.2900 1218.30 0.000 -0.050 -0.010 27.80 0.000 47.9481812 -97.1727219 114.300 109.100 202.6 24.000 22.320 2.310 61.89 85.210 133.78 138.87 127.85 136.76 1167.07 962.64 1064.88 1184.90 28.10 28.10 3.20 0.40
 590181220 175755 0 49000 832.10 0.00 -0.28 0.00 177.70 267.70 1.8200 0.3000 1221.60 0.000 -0.010 0.000 27.80 0.000 47.9481812 -97.1727219 114.300 109.100 202.6 24.000 22.300 2.290 61.91 85.230 134.22 139.33 128.28 137.37 1167.27 963.45 1065.46 1184.84 28.10 28.10 3.20 0.40
 590181221 175755 0 50000 832.40 0.00 -13.47 0.00 177.70 267.70 1.8200 0.2500 1225.50 0.000 0.020 0.000 27.80 0.000 47.9481812 -97.1727219 114.300 109.100 202.6 24.000 22.320 2.270 62.04 85.250 134.96 140.04 129.02 137.98 1168.19 964.79 1066.33 1186.02 28.10 28.10 3.10 0.40
 590181222 175755 0 51000 830.80 0.00 -0.10 0.00 177.70 267.70 1.8300 0.2700 1227.60 0.000 -0.010 -0.010 27.80 0.000 47.9481888 -97.1727219 114.300 109.100 202.6 24.000 22.320 2.300 62.05 85.270 135.99 141.01 130.03 138.98 1168.55 966.47 1067.43 1187.82 28.10 28.10 3.10 0.40
 590181223 175755 0 52000 830.20 0.00 25.39 0.00 177.70 267.70 1.8300 0.3000 1230.80 0.000 -0.010 -0.010 27.50 0.000 47.9481812 -97.1727219 114.300 109.100 202.6 24.000 22.320 2.310 62.12 85.290 137.04 142.02 131.11 140.01 1168.92 967.70 1067.77 1188.97 28.10 28.10 3.20 0.40
 590181224 175755 0 53000 829.90 0.00 36.57 0.00 177.60 267.70 1.8200 0.2700 1231.80 0.000 0.000 -0.010 27.50 0.000 47.9481812 -97.1727219 114.300 109.100 202.6 24.000 22.320 2.290 62.04 85.310 137.97 142.98 132.08 141.00 1169.46 969.46 1068.59 1189.88 28.10 28.10 3.20 0.40
 590181225 175755 0 54000 829.80 0.00 -28.12 0.00 177.70 267.70 1.7700 0.2700 1230.80 0.000 -0.020 0.000 27.50 0.000 47.9481812 -97.1727219 114.300 109.100 202.6 24.000 22.320 2.270 62.00 85.340 139.00 143.97 133.10 141.97 1169.95 971.46 1070.35 1191.24 28.10 28.10 3.20 0.40
 590181226 175755 0 55000 829.70 0.00 1.05 0.00 177.60 267.70 1.8700 0.2300 1232.30 0.000 0.000 -0.020 27.50 0.000 47.9481812 -97.1727219 114.300 109.100 202.6 24.000 22.320 2.270 62.08 85.360 139.91 144.94 134.16 143.05 1170.72 973.07 1071.91 1192.82 28.10 28.10 3.20 0.40
 590181227 175755 0 56000 829.20 0.00 -12.30 0.00 177.90 267.70 1.8700 0.2900 1228.70 0.000 0.020 0.000 27.50 0.000 47.9481888 -97.1727219 114.300 109.100 202.6 24.000 22.320 2.260 61.94 85.380 140.99 145.91 135.15 144.01 1171.35 974.97 1073.28 1193.79 28.10 28.10 3.10 0.30
 590181228 175755 0 57000 830.70 0.00 -38.01 0.00 177.80 267.70 1.8200 0.2300 1227.00 0.000 -0.060 0.000 27.50 0.000 47.9481812 -97.1727219 114.300 109.100 202.6 24.000 22.370 2.280 61.91 85.410 141.94 146.86 136.18 145.08 1172.51 976.75 1074.84 1195.64 28.10 28.10 3.30 0.40
 590181229 175755 0 58000 830.50 0.00 -11.99 0.00 177.80 267.70 1.8800 0.2300 1229.80 0.000 0.000 -0.010 27.50 0.000 47.9481812 -97.1727219 114.300 109.100 202.6 24.000 22.370 2.260 61.98 85.430 143.02 147.92 137.31 146.14 1173.40 977.40 1075.07 1196.63 28.10 28.10 3.20 0.40
 590181230 175755 0 59000 824.10 0.00 -9.19 0.00 177.80 267.70 1.7800 0.3000 1231.50 0.000 -0.060 0.000 27.50 0.000 47.9481888 -97.1727142 114.300 109.100 202.6 24.000 22.370 2.290 62.01 85.450 144.04 148.91 138.32 147.17 1174.00 978.49 1075.42 1197.80 28.10 28.10 3.20 0.30
 590181231 175755 0 60000 824.20 0.00 -19.46 0.00 177.80 267.70 1.8800 0.3000 1233.40 0.000 0.000 -0.010 27.50 0.000 47.9481888 -97.1727142 114.300 109.100 202.6 24.000 22.370 2.310 62.06 85.480 145.01 149.86 139.34 148.15 1173.57 979.62 1076.31 1199.16 28.10 28.10 3.10 0.40
 590181232 175755 0 61000 824.50 0.00 -44.49 0.00 177.70 267.70 1.8500 0.2500 1233.90 0.000 -0.020 0.000 27.50 0.000 47.9481888 -97.1727142 114.300 109.100 202.6 24.000 22.390 2.300 62.01 85.500 145.99 150.80 140.35 149.16 1174.14 980.21 1078.28 1200.33 28.10 28.10 3.20 0.30
 590181233 175755 0 62000 825.50 0.00 -10.98 0.00 177.70 267.70 1.8200 0.3100 1232.30 0.000 0.000 0.000 27.20 0.000 47.9481812 -97.1727142 114.300 109.100 202.6 24.000 22.390 2.310 61.99 85.530 146.96 151.78 141.36 150.11 1174.37 980.72 1080.12 1201.19 28.10 28.10 3.20 0.40
 590181234 175755 0 63000 824.00 0.00 27.27 0.00 177.70 267.70 1.8900 0.3100 1236.00 0.000 0.010 -0.020 27.20 0.000 47.9481812 -97.1727142 114.300 109.100 202.6 24.000 22.430 2.330 62.11 85.560 147.95 152.70 142.35 151.10 1174.05 981.79 1081.45 1202.22 28.10 28.10 3.20 0.40
 590181235 175755 0 64000 824.60 0.00 -27.57 0.00 177.70 267.70 1.8900 0.2900 1234.70 0.000 0.020 -0.010 27.20 0.000 47.9481812 -97.1727142 114.300 109.100 202.6 24.000 22.430 2.300 61.96 85.580 149.00 153.75 143.43 152.16 1174.47 982.86 1082.63 1203.58 28.10 28.10 3.10 0.30
 590181236 175755 0 65000 824.70 0.00 2.60 0.00 177.80 267.70 1.8600 0.2700 1223.40 0.000 0.010 0.000 27.20 0.000 47.9481812 -97.1727142 114.300 109.100 202.6 24.000 22.390 2.300 61.77 85.610 149.99 154.73 144.49 153.18 1176.38 983.95 1083.42 1204.40 28.10 28.10 3.10 0.30
 590181237 175755 0 66000 824.70 0.00 0.69 0.00 177.80 267.70 1.7900 0.3000 1223.30 0.000 -0.050 0.000 27.20 0.000 47.9481812 -97.1727142 114.300 109.100 202.6 24.000 22.390 2.280 61.83 85.640 150.89 155.65 145.49 154.19 1177.45 985.55 1083.59 1204.98 28.10 28.10 3.20 0.30
 590181238 175755 0 67000 824.80 0.00 -7.05 0.00 177.80 267.70 1.8600 0.3000 1228.60 0.000 0.010 -0.010 27.20 0.000 47.9481812 -97.1727142 114.300 109.100 202.6 24.000 22.390 2.280 61.94 85.660 151.94 156.57 146.51 155.14 1178.39 987.38 1084.20 1204.77 28.10 28.10 3.20 0.30
 590181239 175755 0 68000 825.00 0.00 26.39 0.00 177.80 267.70 1.8600 0.3000 1231.00 0.000 0.010 0.000 27.20 0.000 47.9481812 -97.1727142 114.300 109.100 202.6 24.000 22.390 2.250 61.91 85.690 152.90 157.52 147.53 156.13 1178.14 987.79 1084.29 1204.99 28.10 28.10 3.20 0.30
 590181240 175755 0 69000 826.70 0.00 29.34 0.00 177.80 267.70 1.8500 0.3000 1230.80 0.000 -0.030 0.000 27.20 0.000 47.9481812 -97.1727142 114.300 109.100 202.6 24.000 22.430 2.230 61.91 85.720 153.87 158.48 148.52 157.11 1177.55 988.13 1084.83 1205.63 28.10 28.10 3.10 0.30
 590181241 175755 0 70000 826.60 0.00 6.31 0.00 177.80 267.70 1.8800 0.3200 1228.10 0.000 0.010 0.010 27.20 0.000 47.9481812 -97.1727142 114.300 109.100 202.6 24.000 22.430 2.310 61.87 85.750 154.90 159.44 149.60 158.17 1177.05 989.83 1085.88 1206.73 28.10 28.10 3.10 0.30
 590181242 175755 0 71000 826.90 0.00 8.60 0.00 177.80 267.70 1.8800 0.2400 1226.20 0.000 0.010 -0.010 27.20 0.000 47.9481812 -97.1727142 114.300 109.100 202.6 24.000 22.390 2.300 61.85 85.780 155.90 160.43 150.64 159.20 1176.70 990.95 1085.96 1207.14 28.10 28.10 3.20 0.30
 590181243 175755 0 72000 827.10 0.00 25.70 0.00 177.80 267.70 1.8500 0.3100 1229.70 0.000 -0.010 -0.010 27.20 0.000 47.9481812 -97.1727142 114.300 109.100 202.6 24.000 22.390 2.270 61.89 85.810 156.35 160.84 151.18 159.66 1175.83 991.48 1085.81 1207.18 28.10 28.10 3.20 0.30
 590181244 175755 0 73000 827.20 0.00 1.23 0.00 177.70 267.70 1.8800 0.3200 1228.60 0.000 0.000 0.000 27.00 0.000 47.9481812 -97.1727142 114.300 109.100 202.6 24.000 22.430 2.310 61.84 85.830 156.97 161.44 151.88 160.34 1175.94 992.06 1086.26 1207.43 28.10 28.10 3.10 0.30
 590181245 175755 0 74000 826.70 0.00 -7.94 0.00 177.80 267.70 1.8900 0.3100 1228.00 0.000 0.010 0.000 27.00 0.000 47.9481812 -97.1727142 114.300 109.100 202.6 24.000 22.430 2.220 61.83 85.860 157.92 162.34 152.82 161.26 1176.50 992.54 1086.35 1207.59 28.10 28.10 3.20 0.30
 590181246 175755 0 75000 825.10 0.00 -20.28 0.00 177.80 267.70 1.9000 0.2600 1226.10 0.000 0.000 -0.010 27.00 0.000 47.9481888 -97.1727142 114.300 109.100 202.6 24.000 22.430 2.270 61.82 85.890 158.94 163.30 153.89 162.29 1177.38 993.24 1086.26 1207.09 28.10 28.10 3.10 0.30
 590181247 175755 0 76000 825.40 0.00 -16.28 0.00 177.80 267.70 1.8900 0.2600 1229.40 0.000 -0.030 -0.020 27.00 0.000 47.9481888 -97.1727142 114.300 109.100 202.6 24.000 22.430 2.310 61.89 85.930 159.89 164.26 154.94 163.30 1177.99 993.66 1086.37 1206.82 28.10 28.10 3.20 0.30
 590181248 175755 0 77000 825.20 0.00 13.76 0.00 177.80 267.70 1.8700 0.3100 1231.80 0.000 -0.020 0.000 27.00 0.000 47.9481888 -97.1727142 114.300 109.100 202.6 24.000 22.430 2.290 61.88 85.960 160.85 165.20 155.93 164.30 1178.56 994.63 1086.66 1206.89 28.10 28.10 3.10 0.30
 590181249 175755 0 78000 824.90 0.00 5.63 0.00 177.80 267.70 1.8500 0.2600 1232.80 0.000 0.000 0.000 27.00 0.000 47.9481888 -97.1727142 114.300 109.100 202.6 24.000 22.430 2.260 61.90 85.990 161.81 166.06 156.94 165.24 1178.92 995.31 1087.77 1207.43 28.10 28.10 3.10 0.30
 590181250 175755 0 79000 824.80 0.00 72.18 0.00 177.80 267.70 1.8500 0.2900 1237.50 0.000 0.010 0.000 27.00 0.000 47.9481888 -97.1727142 114.300 109.100 202.6 24.000 22.430 2.260 62.01 86.020 162.74 166.97 157.94 166.20 1180.50 995.38 1089.53 1207.47 28.10 28.10 3.10 0.30
 590181251 175755 0 80000 824.70 0.00 38.99 0.00 177.80 267.70 1.8900 0.3100 1241.20 0.000 0.040 -0.010 27.00 0.000 47.9481888 -97.1727142 114.300 109.100 202.6 24.000 22.390 2.340 62.00 86.050 163.74 167.92 159.01 167.27 1182.54 995.92 1090.87 1207.39 28.10 28.10 3.20 0.30
 590181252 175755 0 81000 831.50 0.00 5.20 0.00 177.80 267.70 1.8800 0.3200 1248.10 0.000 -0.010 -0.010 27.00 0.000 47.9481812 -97.1727219 114.300 109.100 202.6 24.000 22.430 2.320 62.16 86.080 164.65 168.83 159.97 168.19 1183.30 996.59 1092.15 1207.67 28.10 28.10 3.20 0.30
 590181253 175755 0 82000 831.50 0.00 -25.90 0.00 177.80 267.70 1.8600 0.3100 1254.40 0.000 -0.040 0.010 27.00 0.000 47.9481812 -97.1727219 114.300 109.100 202.6 24.000 22.430 2.290 62.24 86.120 165.59 169.72 161.00 169.15 1183.52 996.52 1093.72 1208.15 28.10 28.10 3.00 0.30
 590181254 175755 0 83000 831.50 0.00 -52.26 0.00 177.80 267.70 1.8700 0.3000 1247.80 0.000 -0.040 0.000 27.00 0.000 47.9481812 -97.1727219 114.300 109.100 202.6 24.000 22.390 2.290 62.05 86.150 166.58 170.65 162.03 170.14 1184.54 996.37 1095.68 1208.79 28.10 28.10 3.10 0.30
 590181255 175755 0 84000 831.50 0.00 -30.23 0.00 177.80 267.70 1.8800 0.2900 1236.00 0.000 0.010 -0.010 27.00 0.000 47.9481812 -97.1727219 114.300 109.100 202.6 24.000 22.430 2.270 61.89 86.180 167.49 171.54 163.01 171.10 1184.61 996.55 1096.06 1209.54 28.10 28.10 3.10 0.30
 590181256 175755 0 85000 831.60 0.00 15.26 0.00 177.80 267.70 1.8300 0.3100 1235.00 0.000 0.000 0.000 27.00 0.000 47.9481812 -97.1727219 114.300 109.100 202.6 24.000 22.430 2.270 61.90 86.220 168.40 172.39 164.00 172.02 1184.80 997.28 1094.77 1210.09 28.10 28.10 3.10 0.30
 590181257 175755 0 86000 832.10 0.00 -0.96 0.00 177.70 267.70 1.8600 0.2600 1238.10 0.000 0.010 -0.010 26.80 0.000 47.9481812 -97.1727219 114.300 109.100 202.6 24.000 22.390 2.300 61.91 86.250 169.34 173.29 164.99 173.00 1185.10 997.73 1095.13 1210.66 28.10 28.10 3.10 0.30
 590181258 175755 0 87000 830.60 0.00 -6.81 0.00 177.80 267.70 1.8800 0.2400 1239.50 0.000 0.030 0.000 26.80 0.000 47.9481812 -97.1727219 114.300 109.100 202.6 24.000 22.430 2.290 61.96 86.280 170.24 174.15 165.98 173.92 1184.71 998.60 1095.89 1211.73 28.10 28.10 3.10 0.30
 590181259 175755 0 88000 829.90 0.00 -6.49 0.00 177.70 267.70 1.8600 0.2600 1237.00 0.000 0.020 -0.020 26.80 0.000 47.9481812 -97.1727219 114.300 109.100 202.6 24.000 22.390 2.260 61.89 86.320 171.26 175.09 167.00 174.94 1184.96 999.04 1096.15 1212.90 28.10 28.10 3.10 0.30
 590181260 175755 0 89000 829.80 0.00 17.07 0.00 177.70 267.70 1.8300 0.3000 1240.50 0.000 -0.010 -0.010 26.80 0.000 47.9481812 -97.1727219 114.300 109.100 202.6 24.000 22.390 2.270 61.93 86.350 172.15 176.00 168.01 175.92 1186.32 999.02 1096.23 1213.29 28.10 28.10 3.10 0.30
 590181261 175755 0 90000 829.60 0.00 19.06 0.00 177.70 267.70 1.8500 0.2600 1243.90 0.000 0.020 -0.010 26.80 0.000 47.9481888 -97.1727219 114.300 109.100 202.6 24.000 22.390 2.260 62.00 86.390 173.06 176.85 169.03 176.87 1187.90 998.96 1096.44 1213.28 28.10 28.10 3.20 0.30
 590181262 175755 0 91000 820.70 0.00 -16.00 0.00 177.70 267.70 1.8100 0.2600 1242.30 0.000 -0.030 -0.010 26.80 0.000 47.9481964 -97.1727371 114.300 109.100 202.6 24.000 22.390 2.300 61.94 86.420 173.97 177.70 170.00 177.78 1189.36 999.02 1097.19 1214.20 28.10 28.10 3.10 0.30
 590181263 175755 0 92000 820.80 0.00 23.32 0.00 177.70 267.70 1.8300 0.2700 1232.70 0.000 0.000 0.000 26.80 0.000 47.9481964 -97.1727295 114.300 109.100 202.6 24.000 22.390 2.290 61.72 86.460 174.97 178.56 170.94 178.69 1190.37 999.61 1097.28 1214.90 28.10 28.10 3.10 0.30
 590181264 175755 0 93000 823.40 0.00 -16.48 0.00 177.70 267.70 1.8000 0.2500 1233.00 0.000 -0.010 -0.030 26.80 0.000 47.9481926 -97.1727371 114.300 109.100 202.6 24.000 22.430 2.280 61.76 86.500 175.77 179.42 171.93 179.61 1190.52 1000.54 1097.60 1215.90 28.10 28.10 3.10 0.30
 590181265 175755 0 94000 825.40 0.00 -24.53 0.00 177.70 267.70 1.8500 0.3100 1238.90 0.000 0.020 -0.010 26.80 0.000 47.9481926 -97.1727371 114.300 109.100 202.6 24.000 22.450 2.280 61.93 86.530 176.23 179.81 172.43 180.11 1190.18 999.73 1096.32 1215.87 28.10 28.10 3.10 0.30
 590181266 175755 0 95000 825.70 0.00 6.95 0.00 177.80 267.70 1.8500 0.2900 1241.30 0.000 0.030 0.000 26.80 0.000 47.9481926 -97.1727371 114.300 109.100 202.6 24.000 22.430 2.280 61.90 86.570 176.84 180.41 173.13 180.76 1190.54 1000.61 1096.52 1215.78 28.10 28.10 3.20 0.30
 590181267 175755 0 96000 825.80 0.00 -18.87 0.00 177.70 267.70 1.8000 0.2200 1241.40 0.000 -0.010 -0.010 26.80 0.000 47.9481926 -97.1727371 114.300 109.100 202.6 24.000 22.450 2.330 61.88 86.610 177.68 181.19 174.04 181.65 1190.75 1001.63 1097.79 1215.65 28.10 28.10 3.10 0.30
 590181268 175755 0 97000 826.30 0.00 22.01 0.00 177.80 267.70 1.8300 0.2900 1241.00 0.000 -0.040 0.000 26.80 0.000 47.9481926 -97.1727371 114.300 109.100 202.6 24.000 22.430 2.330 61.90 86.640 178.56 182.00 175.03 182.52 1192.51 1002.33 1098.64 1215.07 28.10 28.10 3.10 0.30
 590181269 175755 0 98000 814.10 0.00 25.29 0.00 177.80 267.70 1.9100 0.2500 1237.60 0.000 0.020 0.000 26.80 0.000 47.9481964 -97.1727448 114.300 109.100 202.6 24.000 22.430 2.320 61.77 86.680 179.54 182.85 175.96 183.43 1194.60 1003.75 1098.85 1214.36 28.10 28.10 3.00 0.30
 590181270 175755 0 99000 812.90 0.00 15.25 0.00 177.70 267.70 1.8700 0.2400 1234.90 0.000 0.010 0.000 26.80 0.000 47.9482002 -97.1727448 114.300 109.100 202.6 24.000 22.450 2.280 61.74 86.720 180.32 183.69 176.91 184.30 1195.01 1004.20 1098.72 1213.85 28.10 28.10 3.10 0.30
 590181271 175755 0 100000 811.90 0.00 -7.66 0.00 177.80 267.70 1.8700 0.2500 1230.90 0.000 -0.010 0.000 26.80 0.000 47.9482002 -97.1727371 114.300 109.100 202.6 24.000 22.450 2.280 61.71 86.760 181.08 184.49 177.82 185.24 1194.79 1004.36 1097.78 1213.70 28.10 28.10 3.10 0.30
 590181272 175755 0 101000 811.40 0.00 34.14 0.00 177.70 267.70 1.8800 0.2300 1233.00 0.000 0.010 -0.010 26.80 0.000 47.9482040 -97.1727371 114.300 109.100 202.6 24.000 22.430 2.370 61.71 86.800 182.05 185.32 178.76 186.10 1194.21 1004.21 1096.50 1212.89 28.10 28.10 3.10 0.30
 590181273 175755 0 102000 811.20 0.00 21.65 0.00 177.70 267.70 1.8100 0.2400 1231.50 0.000 -0.010 -0.010 26.80 0.000 47.9482040 -97.1727371 114.300 109.100 202.6 24.000 22.430 2.280 61.63 86.830 182.87 186.21 179.78 187.05 1194.06 1003.96 1096.57 1213.04 28.10 28.10 3.00 0.30
 590181274 175755 0 103000 810.90 0.00 -17.34 0.00 177.80 267.70 1.8000 0.2500 1231.50 0.000 -0.010 0.010 26.80 0.000 47.9482040 -97.1727371 114.300 109.100 202.6 24.000 22.450 2.270 61.66 86.870 183.78 187.06 180.77 188.00 1193.49 1003.99 1096.18 1213.23 28.10 28.10 3.10 0.30
 590181275 175755 0 104000 810.90 0.00 -31.94 0.00 177.80 267.70 1.8500 0.2100 1234.60 0.000 0.010 -0.010 26.80 0.000 47.9482040 -97.1727371 114.300 109.100 202.6 24.000 22.450 2.280 61.77 86.910 184.80 187.85 181.69 188.90 1193.87 1004.22 1095.57 1213.27 28.10 28.10 3.10 0.30
 590181276 175755 0 105000 812.30 0.00 -28.48 0.00 177.70 267.70 1.8100 0.2400 1238.90 0.000 0.000 -0.010 26.80 0.000 47.9481964 -97.1727448 114.300 109.100 202.6 24.000 22.450 2.270 61.75 86.950 185.58 188.68 182.61 189.77 1193.73 1004.78 1096.45 1213.90 28.10 28.10 3.10 0.30
 590181277 175755 0 106000 814.80 0.00 -2.42 0.00 177.80 267.70 1.8100 0.2300 1239.30 0.000 -0.030 0.010 26.80 0.000 47.9481964 -97.1727448 114.300 109.100 202.6 24.000 22.450 2.290 61.74 86.990 186.33 189.48 183.50 190.66 1193.00 1006.20 1098.04 1214.04 28.10 28.10 3.00 0.30
 590181278 175755 0 107000 815.60 0.00 11.83 0.00 177.80 267.70 1.7900 0.2600 1234.80 0.000 -0.020 0.000 26.80 0.000 47.9481964 -97.1727448 114.300 109.100 202.6 24.000 22.450 2.320 61.70 87.030 187.18 190.26 184.45 191.52 1193.53 1006.78 1098.08 1213.94 28.10 28.10 3.00 0.30
 590181279 175755 0 108000 816.20 0.00 0.79 0.00 177.70 267.70 1.8200 0.2000 1230.90 0.000 0.000 -0.010 26.80 0.000 47.9481926 -97.1727448 114.300 109.100 202.6 24.000 22.450 2.290 61.59 87.070 188.02 191.06 185.35 192.37 1193.20 1006.78 1098.26 1213.36 28.10 28.10 3.00 0.30
 590181280 175755 0 109000 816.70 0.00 -12.07 0.00 177.80 267.70 1.8600 0.3000 1237.30 0.000 0.010 0.000 26.80 0.000 47.9481926 -97.1727448 114.300 109.100 202.6 24.000 22.450 2.290 61.75 87.110 188.94 191.82 186.27 193.24 1192.74 1007.35 1098.57 1212.61 28.10 28.10 3.10 0.30
 590181281 175755 0 110000 817.40 0.00 4.00 0.00 177.80 267.70 1.8600 0.2200 1240.80 0.000 0.000 0.000 26.80 0.000 47.9481926 -97.1727448 114.300 109.100 202.6 24.000 22.450 2.260 61.80 87.150 189.95 192.66 187.26 194.19 1193.33 1007.06 1099.51 1212.46 28.10 28.10 3.10 0.30
 590181282 175755 0 111000 816.60 0.00 -29.33 0.00 177.80 267.70 1.9100 0.2400 1246.50 0.000 0.050 0.000 26.80 0.000 47.9481964 -97.1727371 114.300 109.100 202.6 24.000 22.430 2.280 61.85 87.190 190.70 193.53 188.18 195.06 1193.67 1007.18 1100.11 1212.38 28.10 28.10 3.10 0.30
 590181283 175755 0 112000 814.90 0.00 -34.06 0.00 177.80 267.70 1.8000 0.2300 1250.50 0.000 -0.030 0.000 26.80 0.000 47.9482002 -97.1727371 114.300 109.100 202.6 24.000 22.390 2.310 61.87 87.230 191.46 194.29 189.06 195.96 1194.12 1006.79 1100.31 1212.24 28.10 28.10 3.10 0.20
 590181284 175755 0 113000 814.80 0.00 50.70 0.00 177.80 267.70 1.8200 0.2600 1256.80 0.000 0.000 0.000 26.50 0.000 47.9482002 -97.1727371 114.300 109.100 202.6 24.000 22.390 2.290 62.02 87.270 192.34 195.08 189.98 196.79 1194.74 1006.67 1101.13 1212.81 28.10 28.10 3.10 0.30
 590181285 175755 0 114000 814.50 0.00 25.80 0.00 177.70 267.70 1.7900 0.2500 1254.90 0.000 -0.030 -0.020 26.50 0.000 47.9482002 -97.1727371 114.300 109.100 202.6 24.000 22.390 2.320 61.92 87.320 193.15 195.81 190.85 197.65 1194.71 1006.96 1101.65 1213.73 28.10 28.10 3.00 0.30
 590181286 175755 0 115000 814.50 0.00 -24.79 0.00 177.80 267.70 1.8300 0.2700 1246.30 0.000 0.030 -0.010 26.50 0.000 47.9482002 -97.1727371 114.300 109.100 202.6 24.000 22.390 2.310 61.82 87.360 193.97 196.65 191.81 198.55 1195.90 1008.01 1102.08 1215.50 28.10 28.10 3.00 0.30
 590181287 175755 0 116000 814.30 0.00 8.46 0.00 177.80 267.70 1.8300 0.2500 1240.70 0.000 0.030 0.000 26.50 0.000 47.9482002 -97.1727371 114.300 109.100 202.6 24.000 22.390 2.290 61.62 87.400 194.98 197.46 192.74 199.46 1197.13 1008.48 1102.33 1216.60 28.10 28.10 3.00 0.20
 590181288 175755 0 117000 815.80 0.00 33.78 0.00 177.80 267.70 1.8100 0.2200 1237.70 0.000 0.010 -0.010 26.50 0.000 47.9481964 -97.1727448 114.300 109.100 202.6 24.000 22.370 2.250 61.62 87.440 195.55 198.17 193.51 200.20 1197.37 1008.42 1102.36 1217.08 28.10 28.10 3.00 0.20
 590181289 175755 0 118000 817.90 0.00 -16.36 0.00 177.80 267.70 1.7800 0.2700 1238.20 0.000 -0.020 0.000 26.50 0.000 47.9481926 -97.1727371 114.300 109.100 202.6 24.000 22.370 2.280 61.66 87.490 196.35 198.91 194.43 201.09 1198.21 1008.74 1101.88 1217.56 28.10 28.10 3.10 0.30
 590181290 175755 0 119000 818.40 0.00 -44.67 0.00 177.80 267.70 1.7800 0.2400 1240.30 0.000 -0.020 -0.010 26.50 0.000 47.9481926 -97.1727371 114.300 109.100 202.6 24.000 22.370 2.290 61.62 87.530 197.28 199.71 195.34 201.95 1199.04 1008.28 1101.83 1217.42 28.10 28.10 3.10 0.30
 590181291 175755 0 120000 818.80 0.00 -33.59 0.00 177.80 267.70 1.8000 0.2700 1239.50 0.000 0.000 -0.010 26.50 0.000 47.9481926 -97.1727371 114.300 109.100 202.6 24.000 22.320 2.310 61.62 87.570 197.57 199.93 195.70 202.26 1198.90 1007.65 1100.57 1216.95 28.10 28.10 3.00 0.20
 590181292 175755 0 121000 819.20 0.00 9.17 0.00 177.80 267.70 1.7700 0.2600 1238.30 0.000 -0.010 0.000 26.50 0.000 47.9481888 -97.1727371 114.300 109.100 202.6 24.000 22.370 2.300 61.64 87.620 198.03 200.35 196.25 202.73 1198.45 1007.93 1099.57 1217.07 28.10 28.10 3.10 0.20
 590181293 175755 0 122000 819.40 0.00 10.59 0.00 177.80 267.70 1.7600 0.2500 1240.90 0.000 -0.020 0.010 26.50 0.000 47.9481888 -97.1727371 114.300 109.100 202.6 24.000 22.370 2.300 61.65 87.660 198.86 201.03 197.05 203.53 1197.68 1008.61 1099.70 1217.78 28.10 28.10 3.10 0.20
 590181294 175755 0 123000 819.80 0.00 14.15 0.00 177.80 267.70 1.7500 0.2600 1242.10 0.000 -0.010 0.000 26.50 0.000 47.9481926 -97.1727371 114.300 109.100 202.6 24.000 22.320 2.290 61.65 87.700 199.47 201.77 197.86 204.37 1196.69 1008.43 1099.89 1217.94 28.10 28.10 3.10 0.20
 590181295 175755 0 124000 818.60 0.00 18.03 0.00 177.80 267.70 1.8000 0.2600 1236.20 0.000 0.040 0.000 26.50 0.000 47.9481926 -97.1727371 114.300 109.100 202.6 24.000 22.370 2.280 61.56 87.750 200.23 202.50 198.71 205.15 1195.19 1008.65 1100.71 1217.87 28.10 28.10 3.00 0.30
 590181296 175755 0 125000 818.80 0.00 17.54 0.00 177.80 267.70 1.7800 0.2900 1232.60 0.000 0.000 0.000 26.50 0.000 47.9481926 -97.1727371 114.300 109.100 202.6 24.000 22.390 2.270 61.48 87.790 201.07 203.20 199.55 205.97 1194.91 1009.23 1100.06 1217.72 28.10 28.10 3.00 0.20
 590181297 175755 0 126000 818.90 0.00 23.97 0.00 177.80 267.70 1.7800 0.2700 1236.00 0.000 -0.020 -0.010 26.50 0.000 47.9481926 -97.1727371 114.300 109.100 202.6 24.000 22.390 2.260 61.51 87.840 201.76 203.90 200.36 206.77 1195.24 1009.86 1100.22 1217.55 28.10 28.10 3.10 0.20
 590181298 175755 0 127000 819.00 0.00 11.60 0.00 177.80 267.70 1.7700 0.2900 1236.60 0.000 0.000 0.010 26.50 0.000 47.9481926 -97.1727371 114.300 109.100 202.6 24.000 22.370 2.330 61.52 87.880 202.60 204.62 201.20 207.57 1195.20 1010.56 1099.84 1217.53 28.10 28.10 3.10 0.20
 590181299 175755 0 128000 819.10 0.00 -28.59 0.00 177.80 267.70 1.7900 0.2600 1239.40 0.000 0.030 -0.010 26.50 0.000 47.9481926 -97.1727448 114.300 109.100 202.6 24.000 22.390 2.290 61.61 87.930 203.50 205.45 202.12 208.43 1194.60 1011.71 1099.80 1217.64 28.10 28.10 3.10 0.20
 590181300 175755 0 129000 817.90 0.00 -31.32 0.00 177.80 267.70 1.7500 0.3400 1246.00 0.000 -0.010 0.010 26.50 0.000 47.9481888 -97.1727448 114.300 109.100 202.6 24.000 22.390 2.310 61.67 87.970 204.14 206.23 202.98 209.24 1193.95 1012.69 1100.25 1217.14 28.10 28.10 3.00 0.20
 590181301 175755 0 130000 819.40 0.00 -16.90 0.00 177.80 267.70 1.7900 0.2900 1251.20 0.000 0.020 -0.010 26.50 0.000 47.9481888 -97.1727448 114.300 109.100 202.6 24.000 22.390 2.260 61.81 88.020 204.88 206.93 203.83 210.08 1193.30 1013.52 1101.28 1217.25 28.10 28.10 3.00 0.20
 590181302 175755 0 131000 819.50 0.00 26.42 0.00 177.80 267.70 1.8100 0.3300 1254.10 0.000 0.010 0.000 26.50 0.000 47.9481888 -97.1727448 114.300 109.100 202.6 24.000 22.390 2.280 61.78 88.070 205.72 207.62 204.65 210.84 1192.48 1014.17 1102.24 1217.59 28.10 28.10 3.00 0.20
 590181303 175755 0 132000 819.60 0.00 32.95 0.00 177.80 267.70 1.8500 0.3400 1242.50 0.000 0.000 0.010 26.50 0.000 47.9481888 -97.1727448 114.300 109.100 202.6 24.000 22.390 2.280 61.54 88.120 206.44 208.31 205.42 211.63 1192.30 1014.57 1101.75 1217.54 28.10 28.10 3.00 0.20
 590181304 175755 0 133000 819.60 0.00 50.85 0.00 177.80 267.70 1.8700 0.3000 1234.90 0.000 0.030 0.000 26.50 0.000 47.9481888 -97.1727448 114.300 109.100 202.6 24.000 22.390 2.340 61.47 88.160 207.17 209.00 206.23 212.41 1193.00 1015.14 1101.58 1217.42 28.10 28.10 3.10 0.20
 590181305 175755 0 134000 819.70 0.00 -28.65 0.00 177.80 267.70 1.8100 0.2700 1232.90 0.000 0.000 -0.020 26.50 0.000 47.9481888 -97.1727448 114.300 109.100 202.6 24.000 22.370 2.320 61.38 88.210 207.98 209.72 207.04 213.18 1193.52 1014.76 1101.39 1217.23 28.10 28.10 3.00 0.20
 590181306 175755 0 135000 821.40 0.00 -21.82 0.00 177.80 267.70 1.7900 0.3100 1232.10 0.000 -0.010 0.000 26.50 0.000 47.9481888 -97.1727371 114.300 109.100 202.6 24.000 22.320 2.280 61.37 88.260 208.64 210.41 207.85 213.95 1193.09 1014.31 1101.91 1217.54 28.10 28.10 3.00 0.20
 590181307 175755 0 136000 820.10 0.00 -14.46 0.00 177.90 267.70 1.8000 0.3200 1233.10 0.000 0.000 -0.010 26.50 0.000 47.9481926 -97.1727448 114.300 109.100 202.6 24.000 22.370 2.280 61.44 88.310 209.34 211.10 208.61 214.70 1192.56 1014.38 1101.15 1218.23 28.10 28.10 3.00 0.20
 590181308 175755 0 137000 820.10 0.00 -1.02 0.00 177.80 267.70 1.8600 0.2700 1234.20 0.000 0.010 -0.010 26.50 0.000 47.9481926 -97.1727448 114.300 109.100 202.6 24.000 22.370 2.260 61.42 88.360 210.06 211.79 209.37 215.47 1192.06 1014.26 1101.04 1217.94 28.10 28.10 3.00 0.20
 590181309 175755 0 138000 820.00 0.00 26.65 0.00 177.80 267.70 1.8300 0.2500 1237.20 0.000 0.010 0.000 26.50 0.000 47.9481926 -97.1727448 114.300 109.100 202.6 24.000 22.390 2.260 61.39 88.410 210.79 212.46 210.18 216.23 1191.76 1013.53 1100.76 1217.45 28.10 28.10 3.10 0.20
 590181310 175755 0 139000 820.00 0.00 -33.13 0.00 177.90 267.70 1.8100 0.2500 1230.80 0.000 -0.030 0.010 26.50 0.000 47.9481926 -97.1727448 114.300 109.100 202.6 24.000 22.370 2.270 61.32 88.460 211.55 213.24 211.03 217.09 1192.19 1013.18 1100.43 1216.99 28.10 28.10 3.00 0.20
 590181311 175755 0 140000 819.80 0.00 -23.18 0.00 177.80 267.70 1.8000 0.2700 1230.00 0.000 -0.010 -0.010 26.50 0.000 47.9481926 -97.1727448 114.300 109.100 202.6 24.000 22.370 2.290 61.34 88.500 212.30 213.98 211.84 217.90 1192.00 1012.76 1100.69 1216.74 28.10 28.10 3.00 0.20
 590181312 175755 0 141000 818.40 0.00 21.86 0.00 177.80 267.70 1.7900 0.2500 1228.70 0.000 0.000 0.000 26.50 0.000 47.9481888 -97.1727448 114.300 109.100 202.6 24.000 22.390 2.270 61.25 88.550 213.03 214.65 212.62 218.62 1190.62 1012.68 1100.35 1215.84 28.10 28.10 3.10 0.20
 590181313 175755 0 142000 819.70 0.00 27.98 0.00 177.90 267.70 1.8200 0.2900 1228.50 0.000 0.040 0.010 26.50 0.000 47.9481888 -97.1727448 114.300 109.100 202.6 24.000 22.390 2.290 61.27 88.600 213.72 215.32 213.40 219.37 1189.13 1012.95 1099.74 1214.62 28.10 28.10 3.00 0.20
 590181314 175755 0 143000 819.80 0.00 5.26 0.00 177.80 267.70 1.7600 0.2400 1230.70 0.000 -0.040 -0.010 26.50 0.000 47.9481888 -97.1727448 114.300 109.100 202.6 24.000 22.390 2.300 61.32 88.660 214.39 216.01 214.14 220.11 1188.83 1012.38 1098.63 1214.14 28.10 28.10 3.00 0.20
 590181315 175755 0 144000 820.00 0.00 -5.03 0.00 177.80 267.70 1.8800 0.2700 1234.20 0.000 0.040 0.010 26.50 0.000 47.9481888 -97.1727448 114.300 109.100 202.6 24.000 22.390 2.300 61.39 88.710 215.06 216.65 214.89 220.86 1188.74 1012.27 1097.40 1214.00 28.10 28.10 3.00 0.20
 590181316 175755 0 145000 820.10 0.00 -18.39 0.00 177.90 267.70 1.7900 0.2700 1233.50 0.000 0.020 0.000 26.50 0.000 47.9481888 -97.1727448 114.300 109.100 202.6 24.000 22.390 2.310 61.29 88.760 215.72 217.33 215.63 221.59 1188.91 1012.80 1096.75 1214.53 28.10 28.10 3.00 0.20
 590181317 175755 0 146000 820.30 0.00 -9.18 0.00 177.80 267.70 1.7600 0.2100 1234.20 0.000 -0.030 0.000 26.20 0.000 47.9481888 -97.1727448 114.300 109.100 202.6 24.000 22.390 2.330 61.34 88.810 216.45 217.99 216.37 222.31 1189.04 1013.45 1096.33 1215.38 28.10 28.10 3.00 0.20
 590181318 175755 0 147000 820.60 0.00 25.68 0.00 177.80 267.70 1.8000 0.2500 1238.70 0.000 0.010 -0.020 26.20 0.000 47.9481888 -97.1727371 114.300 109.100 202.6 24.000 22.370 2.290 61.43 88.860 217.05 218.66 217.15 223.06 1189.24 1013.37 1096.71 1216.40 28.10 28.10 3.00 0.20
 590181319 175755 0 148000 819.00 0.00 47.27 0.00 177.80 267.70 1.8100 0.2300 1246.90 0.000 -0.010 0.010 26.20 0.000 47.9481926 -97.1727448 114.300 109.100 202.6 24.000 22.370 2.280 61.57 88.910 217.22 218.77 217.36 223.28 1188.95 1013.07 1096.42 1216.81 28.10 28.10 3.00 0.20
 590181320 175755 0 149000 818.80 0.00 -11.06 0.00 177.90 267.70 1.8100 0.2400 1249.10 0.000 -0.020 0.000 26.20 0.000 47.9481926 -97.1727448 114.300 109.100 202.6 24.000 22.390 2.340 61.53 88.960 217.63 219.20 217.83 223.75 1188.94 1013.10 1097.94 1217.30 28.10 28.10 2.90 0.20
 590181321 175755 0 150000 818.60 0.00 -9.05 0.00 177.70 267.70 1.7900 0.2000 1246.70 0.000 0.000 -0.010 26.20 0.000 47.9481926 -97.1727448 114.300 109.100 202.6 24.000 22.370 2.290 61.50 89.010 218.24 219.78 218.51 224.39 1188.60 1013.18 1099.71 1218.06 28.10 28.10 3.00 0.20
 590181322 175755 0 151000 818.50 0.00 -4.78 0.00 177.80 267.70 1.8100 0.2900 1237.00 0.000 -0.030 0.000 26.20 0.000 47.9481926 -97.1727448 114.300 109.100 202.6 24.000 22.370 2.290 61.28 89.060 218.89 220.49 219.25 225.13 1188.54 1014.21 1100.34 1218.37 28.10 28.10 3.00 0.20
 590181323 175755 0 152000 818.60 0.00 -15.22 0.00 177.80 267.70 1.8000 0.2400 1235.60 0.000 -0.030 0.000 26.20 0.000 47.9481964 -97.1727448 114.300 109.100 202.6 24.000 22.390 2.310 61.31 89.120 219.57 221.09 219.95 225.82 1188.40 1013.74 1099.24 1217.95 28.10 28.10 2.90 0.20
 590181324 175755 0 153000 820.00 0.00 -6.13 0.00 177.70 267.70 1.8500 0.2500 1235.60 0.000 0.060 -0.010 26.20 0.000 47.9481888 -97.1727448 114.300 109.100 202.6 24.000 22.390 2.320 61.33 89.170 220.19 221.75 220.67 226.55 1187.75 1013.38 1098.61 1216.90 28.10 28.10 2.90 0.20
 590181325 175755 0 154000 821.70 0.00 -27.83 0.00 177.80 267.70 1.8000 0.2700 1239.10 0.000 0.000 0.000 26.20 0.000 47.9481888 -97.1727448 114.300 109.100 202.6 24.000 22.430 2.290 61.28 89.220 220.86 222.42 221.42 227.32 1187.06 1013.78 1098.38 1216.03 28.10 28.10 2.90 0.20
 590181326 175755 0 155000 822.00 0.00 -54.74 0.00 177.80 267.70 1.8800 0.2500 1242.40 0.000 0.050 0.000 26.20 0.000 47.9481888 -97.1727448 114.300 109.100 202.6 24.000 22.430 2.280 61.41 89.280 221.40 222.98 222.08 227.93 1186.93 1013.87 1098.71 1215.45 28.10 28.10 3.00 0.20
 590181327 175755 0 156000 822.40 0.00 -23.50 0.00 177.80 267.70 1.8800 0.2700 1247.60 0.000 0.010 -0.010 26.20 0.000 47.9481888 -97.1727448 114.300 109.100 202.6 24.000 22.450 2.300 61.50 89.330 221.99 223.65 222.82 228.66 1188.15 1014.55 1099.11 1215.73 28.10 28.10 3.00 0.20
 590181328 175755 0 157000 822.50 0.00 -4.69 0.00 177.80 267.70 1.7800 0.2500 1252.30 0.000 -0.010 0.000 26.20 0.000 47.9481888 -97.1727448 114.300 109.100 202.6 24.000 22.450 2.290 61.55 89.380 222.75 224.31 223.55 229.38 1189.69 1015.45 1100.33 1216.44 28.10 28.10 2.90 0.20
 590181329 175755 0 158000 822.50 0.00 50.67 0.00 177.80 267.70 1.7700 0.2300 1254.90 0.000 0.010 -0.010 26.20 0.000 47.9481888 -97.1727448 114.300 109.100 202.6 24.000 22.430 2.310 61.61 89.440 223.41 224.97 224.23 230.07 1189.92 1015.84 1101.01 1216.56 28.10 28.10 2.90 0.20
 590181330 175755 0 159000 821.10 0.00 50.07 0.00 177.80 267.70 1.7900 0.2600 1251.40 0.000 -0.030 0.000 26.20 0.000 47.9481926 -97.1727371 114.300 109.100 202.6 24.000 22.430 2.330 61.44 89.490 223.96 225.56 224.96 230.75 1190.36 1016.53 1101.57 1216.85 28.10 28.10 2.90 0.20
 590181331 175755 0 160000 819.40 0.00 17.09 0.00 177.80 267.70 1.8300 0.2400 1249.00 0.000 0.000 0.010 26.20 0.000 47.9481926 -97.1727448 114.300 109.100 202.6 24.000 22.430 2.290 61.47 89.540 224.59 226.19 225.62 231.44 1191.43 1017.24 1101.50 1216.42 28.10 28.10 3.00 0.20
 590181332 175755 0 161000 819.30 0.00 -9.62 0.00 177.80 267.70 1.7800 0.2200 1252.10 0.000 0.000 -0.010 26.20 0.000 47.9481964 -97.1727448 114.300 109.100 202.6 24.000 22.390 2.310 61.49 89.600 225.28 226.87 226.38 232.18 1192.80 1017.39 1101.48 1216.38 28.10 28.10 2.90 0.20
 590181333 175755 0 162000 819.10 0.00 -19.45 0.00 177.90 267.70 1.8300 0.2400 1255.10 0.000 0.000 0.010 26.20 0.000 47.9481964 -97.1727448 114.300 109.100 202.6 24.000 22.390 2.350 61.54 89.650 225.85 227.44 227.02 232.82 1192.90 1017.46 1102.00 1216.16 28.10 28.10 2.90 0.20
 590181334 175755 0 163000 819.20 0.00 5.78 0.00 177.80 267.70 1.8600 0.2500 1252.20 0.000 0.060 -0.010 26.20 0.000 47.9481964 -97.1727448 114.300 109.100 202.6 24.000 22.390 2.310 61.46 89.710 226.47 228.08 227.72 233.50 1192.11 1017.41 1101.10 1216.38 28.10 28.10 2.90 0.20
 590181335 175755 0 164000 819.50 0.00 10.46 0.00 177.80 267.70 1.7500 0.2000 1249.10 0.000 0.000 -0.010 26.20 0.000 47.9481964 -97.1727448 114.300 109.100 202.6 24.000 22.390 2.280 61.31 89.760 227.17 228.73 228.44 234.24 1191.66 1017.57 1101.40 1217.09 28.10 28.10 2.90 0.20
 590181336 175755 0 165000 821.10 0.00 3.21 0.00 177.80 267.70 1.7500 0.2600 1240.60 0.000 0.000 -0.010 26.00 0.000 47.9481888 -97.1727448 114.300 109.100 202.6 24.000 22.390 2.280 61.28 89.820 227.56 229.24 229.00 234.79 1191.21 1017.56 1100.75 1217.38 28.10 28.10 2.90 0.20
 590181337 175755 0 166000 821.80 0.00 7.09 0.00 177.80 267.70 1.7700 0.2200 1241.90 0.000 -0.010 -0.010 26.00 0.000 47.9481888 -97.1727448 114.300 109.100 202.6 24.000 22.390 2.330 61.28 89.870 228.24 229.88 229.70 235.48 1190.93 1017.83 1101.32 1217.45 28.00 28.10 2.90 0.20
 590181338 175755 0 167000 822.20 0.00 1.27 0.00 177.70 267.70 1.7700 0.2600 1250.30 0.000 0.010 -0.030 26.00 0.000 47.9481888 -97.1727448 114.300 109.100 202.6 24.000 22.390 2.310 61.39 89.930 228.74 230.43 230.35 236.11 1190.43 1017.68 1101.14 1216.86 28.10 28.10 2.80 0.20
 590181339 175755 0 168000 822.30 0.00 14.16 0.00 177.70 267.70 1.7700 0.2300 1245.10 0.000 -0.020 -0.010 26.00 0.000 47.9481888 -97.1727448 114.300 109.100 202.6 24.000 22.370 2.290 61.31 89.980 229.38 231.03 231.02 236.81 1190.73 1018.51 1100.61 1215.95 28.10 28.10 2.80 0.20
 590181340 175755 0 169000 822.60 0.00 4.50 0.00 177.80 267.70 1.7500 0.2400 1238.10 0.000 0.020 0.000 26.00 0.000 47.9481888 -97.1727448 114.300 109.100 202.6 24.000 22.370 2.330 61.13 90.040 230.00 231.68 231.70 237.46 1191.41 1019.15 1100.41 1215.78 28.00 28.10 2.80 0.20
 590181341 175755 0 170000 822.50 0.00 -2.41 0.00 177.70 267.70 1.7900 0.2200 1235.30 0.000 0.030 0.000 26.00 0.000 47.9481888 -97.1727448 114.300 109.100 202.6 24.000 22.370 2.290 61.11 90.100 230.61 232.27 232.37 238.09 1191.52 1019.32 1101.15 1215.94 28.10 28.10 2.90 0.20
 590181342 175755 0 171000 821.00 0.00 -12.88 0.00 177.80 267.70 1.7500 0.2700 1236.70 0.000 0.030 0.010 26.00 0.000 47.9481926 -97.1727448 114.300 109.100 202.6 24.000 22.370 2.270 61.16 90.150 231.13 232.87 233.01 238.74 1190.91 1019.25 1101.49 1215.50 28.00 28.10 2.90 0.20
 590181343 175755 0 172000 821.10 0.00 12.15 0.00 177.80 267.70 1.7100 0.2500 1241.40 0.000 -0.040 -0.010 26.00 0.000 47.9481926 -97.1727448 114.300 109.100 202.6 24.000 22.370 2.280 61.20 90.210 231.69 233.45 233.64 239.37 1190.48 1019.35 1101.16 1214.88 28.00 28.10 2.60 0.20
 590181344 175755 0 173000 820.90 0.00 16.98 0.00 177.70 267.70 1.7500 0.2300 1246.20 0.000 0.010 -0.010 26.00 0.000 47.9481926 -97.1727448 114.300 109.100 202.6 24.000 22.370 2.300 61.28 90.270 232.24 234.03 234.23 240.00 1190.15 1019.25 1101.11 1215.30 28.10 28.10 2.80 0.20
 590181345 175755 0 174000 820.60 0.00 15.22 0.00 177.80 267.70 1.7600 0.3000 1249.70 0.000 -0.020 -0.010 26.00 0.000 47.9481926 -97.1727448 114.300 109.100 202.6 24.000 22.370 2.340 61.37 90.320 232.77 234.60 234.91 240.59 1190.14 1018.87 1100.12 1216.19 28.00 28.10 2.80 0.20
 590181346 175755 0 175000 820.30 0.00 -1.57 0.00 177.80 267.70 1.7900 0.2600 1252.20 0.000 -0.010 -0.010 26.00 0.000 47.9481926 -97.1727448 114.300 109.100 202.6 24.000 22.320 2.290 61.33 90.380 233.34 235.17 235.49 241.24 1189.57 1018.94 1099.87 1216.84 28.00 28.00 2.70 0.20
 590181347 175755 0 176000 820.20 0.00 -17.98 0.00 177.80 267.70 1.7600 0.2900 1252.50 0.000 0.010 -0.010 26.00 0.000 47.9481964 -97.1727448 114.300 109.100 202.6 24.000 22.320 2.300 61.40 90.440 233.93 235.74 236.12 241.88 1189.53 1019.44 1101.45 1217.32 28.00 28.00 2.70 0.20
 590181348 175755 0 177000 821.50 0.00 3.52 0.00 177.80 267.70 1.7100 0.2700 1254.40 0.000 -0.020 0.000 26.00 0.000 47.9481888 -97.1727448 114.300 109.100 202.6 24.000 22.370 2.340 61.36 90.490 234.49 236.44 236.80 242.55 1189.45 1020.04 1101.90 1217.52 28.00 28.00 2.70 0.20
 590181349 175755 0 178000 820.70 0.00 13.22 0.00 177.70 267.70 1.7200 0.2300 1255.80 0.000 0.000 -0.010 26.00 0.000 47.9481926 -97.1727448 114.300 109.100 202.6 24.000 22.320 2.320 61.40 90.550 234.48 236.44 236.88 242.61 1189.40 1019.74 1101.43 1217.16 28.00 28.00 2.60 0.20
 590181350 175755 0 179000 820.60 0.00 3.33 0.00 177.70 267.70 1.7800 0.3400 1255.60 0.000 0.000 -0.010 26.00 0.000 47.9481926 -97.1727448 114.300 109.100 202.6 24.000 22.370 2.280 61.32 90.610 234.65 236.63 237.14 242.81 1189.22 1020.28 1101.09 1216.56 28.00 28.00 2.60 0.20
 590181351 175755 0 180000 820.50 0.00 -5.79 0.00 177.70 267.70 1.8100 0.2700 1255.50 0.000 0.000 0.000 26.00 0.000 47.9481926 -97.1727448 114.300 109.100 202.6 24.000 22.370 2.320 61.38 90.670 235.15 237.18 237.70 243.39 1189.41 1020.26 1102.20 1216.68 28.00 28.00 2.60 0.20
 590181352 175755 0 181000 829.40 0.00 -29.59 0.00 177.70 267.70 1.7600 0.2600 1255.70 0.000 0.000 0.000 26.00 0.000 47.9481888 -97.1727295 114.300 109.100 202.6 24.000 22.390 2.350 61.34 90.730 235.75 237.87 238.36 244.08 1189.46 1020.47 1103.56 1217.37 28.00 28.00 2.50 0.20
 590181353 175755 0 182000 829.80 0.00 -10.41 0.00 177.70 267.70 1.7500 0.3100 1257.40 0.000 0.000 -0.010 26.00 0.000 47.9481888 -97.1727295 114.300 109.100 202.6 24.000 22.430 2.310 61.39 90.790 236.38 238.45 239.00 244.71 1189.53 1021.10 1104.69 1217.72 28.00 28.00 2.70 0.20
 590181354 175755 0 183000 829.70 0.00 -9.43 0.00 177.70 267.70 1.7700 0.3100 1260.60 0.000 0.020 0.010 26.00 0.000 47.9481926 -97.1727295 114.300 109.100 202.6 24.000 22.430 2.280 61.40 90.850 236.85 239.01 239.61 245.32 1190.26 1021.45 1104.05 1218.01 28.00 28.00 2.60 0.20
 590181355 175755 0 184000 830.10 0.00 -2.82 0.00 177.70 267.70 1.8000 0.2500 1262.90 0.000 0.010 0.000 26.00 0.000 47.9481926 -97.1727295 114.300 109.100 202.6 24.000 22.430 2.330 61.42 90.910 237.36 239.57 240.20 245.93 1190.55 1021.28 1103.36 1218.16 28.00 28.00 2.70 0.20
 590181356 175755 0 185000 830.30 0.00 6.56 0.00 177.70 267.70 1.8000 0.3100 1258.70 0.000 0.030 -0.010 26.00 0.000 47.9481926 -97.1727295 114.300 109.100 202.6 24.000 22.450 2.310 61.33 90.970 237.84 240.13 240.80 246.49 1191.33 1021.13 1103.47 1218.61 28.00 28.00 2.70 0.20
 590181357 175755 0 186000 830.50 0.00 -15.19 0.00 177.70 267.70 1.7900 0.3400 1259.40 0.000 0.000 0.010 26.00 0.000 47.9481926 -97.1727295 114.300 109.100 202.6 24.000 22.450 2.330 61.34 91.030 238.28 240.56 241.25 246.99 1191.16 1021.61 1103.35 1218.78 28.00 28.00 2.70 0.20
 590181358 175755 0 187000 830.70 0.00 38.77 0.00 177.70 267.70 1.8000 0.2700 1255.10 0.000 0.000 -0.020 26.00 0.000 47.9481926 -97.1727295 114.300 109.100 202.6 24.000 22.450 2.310 61.24 91.090 238.81 241.14 241.88 247.57 1191.52 1021.87 1103.72 1218.31 28.00 28.00 2.70 0.20
 590181359 175755 0 188000 830.80 0.00 -4.37 0.00 177.70 267.70 1.7900 0.3500 1255.10 0.000 0.010 -0.010 26.00 0.000 47.9481926 -97.1727295 114.300 109.100 202.6 24.000 22.450 2.340 61.27 91.150 239.32 241.69 242.43 248.13 1191.17 1022.27 1104.79 1218.61 28.00 28.00 2.70 0.20
 590181360 175755 0 189000 832.10 0.00 -17.60 0.00 177.70 267.70 1.7700 0.3400 1258.40 0.000 0.000 -0.020 26.00 0.000 47.9481888 -97.1727295 114.300 109.100 202.6 24.000 22.450 2.300 61.30 91.210 239.80 242.27 243.05 248.75 1191.30 1022.15 1105.08 1218.58 28.00 28.00 2.70 0.20
 590181361 175755 0 190000 831.60 0.00 8.99 0.00 177.70 267.70 1.7800 0.3100 1259.30 0.000 -0.010 -0.010 26.00 0.000 47.9481926 -97.1727295 114.300 109.100 202.6 24.000 22.520 2.350 61.30 91.270 240.33 242.81 243.67 249.35 1190.54 1022.16 1105.14 1218.74 28.00 28.00 2.70 0.20
 590181362 175755 0 191000 830.10 0.00 -0.95 0.00 177.70 267.70 1.8200 0.3500 1263.20 0.000 -0.010 -0.010 26.00 0.000 47.9481888 -97.1727295 114.300 109.100 202.6 24.000 22.520 2.310 61.36 91.330 240.82 243.36 244.25 249.96 1189.88 1022.31 1105.47 1218.96 28.00 28.00 2.70 0.20
 590181363 175755 0 192000 830.10 0.00 25.68 0.00 177.70 267.70 1.8300 0.3300 1268.00 0.000 0.000 0.010 26.00 0.000 47.9481888 -97.1727295 114.300 109.100 202.6 24.000 22.560 2.320 61.44 91.390 241.32 243.92 244.79 250.49 1189.22 1022.41 1106.56 1219.51 28.00 28.00 2.70 0.20
 590181364 175755 0 193000 830.30 0.00 25.08 0.00 177.70 267.70 1.8500 0.3100 1267.70 0.000 0.020 -0.020 26.00 0.000 47.9481888 -97.1727295 114.300 109.100 202.6 24.000 22.560 2.320 61.36 91.450 241.81 244.42 245.38 251.05 1188.79 1023.39 1107.82 1219.47 28.00 28.00 2.70 0.20
 590181365 175755 0 194000 830.60 0.00 60.58 0.00 177.70 267.70 1.7800 0.3400 1265.60 0.000 0.000 -0.010 26.00 0.000 47.9481888 -97.1727295 114.300 109.100 202.6 24.000 22.490 2.310 61.39 91.520 242.31 244.94 245.93 251.63 1189.64 1024.35 1108.19 1219.49 28.00 28.00 2.80 0.20
 590181366 175755 0 195000 829.50 0.00 75.31 0.00 177.70 267.70 1.7400 0.3500 1266.30 0.000 0.000 -0.010 26.00 0.000 47.9481926 -97.1727295 114.300 109.100 202.6 24.000 22.520 2.310 61.33 91.580 242.75 245.48 246.47 252.18 1189.24 1024.96 1108.26 1219.26 28.00 28.00 2.70 0.20
 590181367 175755 0 196000 830.20 0.00 -12.37 0.00 177.70 267.70 1.7900 0.3200 1264.50 0.000 0.010 -0.010 26.00 0.000 47.9481888 -97.1727295 114.300 109.100 202.6 24.000 22.520 2.330 61.33 91.640 243.24 246.00 247.03 252.75 1189.44 1024.58 1108.16 1218.13 28.00 28.00 2.70 0.20
 590181368 175755 0 197000 830.40 0.00 -48.06 0.00 177.80 267.70 1.8300 0.3700 1262.70 0.000 -0.010 0.000 26.00 0.000 47.9481888 -97.1727295 114.300 109.100 202.6 24.000 22.520 2.320 61.25 91.710 243.70 246.49 247.57 253.31 1190.08 1024.93 1108.13 1217.85 28.00 28.00 2.80 0.20
 590181369 175755 0 198000 830.60 0.00 -45.69 0.00 177.80 267.70 1.8000 0.3100 1263.30 0.000 -0.030 -0.010 25.80 0.000 47.9481888 -97.1727295 114.300 109.100 202.6 24.000 22.520 2.280 61.31 91.770 244.25 247.10 248.19 253.90 1190.65 1026.12 1109.04 1218.73 28.00 28.00 2.70 0.20
 590181370 175755 0 199000 830.80 0.00 -22.01 0.00 177.80 267.70 1.8600 0.3500 1266.20 0.000 0.040 0.000 25.80 0.000 47.9481888 -97.1727295 114.300 109.100 202.6 24.000 22.490 2.310 61.31 91.840 244.79 247.67 248.80 254.51 1190.38 1026.45 1109.57 1219.45 28.00 28.00 2.70 0.20
 590181371 175755 0 200000 830.90 0.00 -5.79 0.00 177.80 267.70 1.7900 0.3500 1264.60 0.000 0.010 -0.010 25.80 0.000 47.9481888 -97.1727295 114.300 109.100 202.6 24.000 22.490 2.290 61.25 91.900 245.16 248.08 249.24 254.95 1190.51 1026.08 1108.59 1219.45 28.00 28.00 2.80 0.20
 590181372 175755 0 201000 832.20 0.00 7.00 0.00 177.80 267.70 1.7900 0.3300 1265.80 0.000 -0.010 -0.010 25.80 0.000 47.9481812 -97.1727295 114.300 109.100 202.6 24.000 22.450 2.340 61.28 91.970 245.66 248.63 249.80 255.53 1190.85 1026.56 1108.12 1219.71 28.00 28.00 2.70 0.20
 590181373 175755 0 202000 832.50 0.00 31.19 0.00 177.80 267.70 1.7900 0.3600 1264.90 0.000 -0.030 0.000 25.80 0.000 47.9481888 -97.1727295 114.300 109.100 202.6 24.000 22.450 2.310 61.25 92.030 246.16 249.18 250.40 256.10 1190.12 1027.10 1107.74 1219.71 28.00 28.00 2.70 0.20
 590181374 175755 0 203000 832.70 0.00 4.45 0.00 177.70 267.70 1.8200 0.3200 1265.50 0.000 0.000 -0.010 25.80 0.000 47.9481888 -97.1727295 114.300 109.100 202.6 24.000 22.450 2.340 61.27 92.100 246.64 249.65 250.93 256.63 1191.08 1027.21 1107.33 1219.59 28.00 28.00 2.80 0.20
 590181375 175755 0 204000 832.80 0.00 -5.79 0.00 177.70 267.70 1.8100 0.3400 1266.40 0.000 0.000 -0.010 25.80 0.000 47.9481888 -97.1727295 114.300 109.100 202.6 24.000 22.450 2.360 61.24 92.170 246.98 250.09 251.36 257.08 1191.06 1026.60 1108.13 1220.19 28.00 28.00 2.70 0.20
 590181376 175755 0 205000 833.00 0.00 3.60 0.00 177.70 267.70 1.8500 0.3500 1266.80 0.000 -0.010 0.000 25.80 0.000 47.9481888 -97.1727295 114.300 109.100 202.6 24.000 22.450 2.280 61.26 92.230 247.47 250.63 251.90 257.64 1190.99 1025.86 1109.20 1220.71 28.00 28.00 2.70 0.20
