# id flight phase time msl_altitude indicated_airspeed vertical_airspeed tas heading course pitch_attitude roll_attitude eng_1_rpm vertical_acceleration longitudinal_acceleration lateral_acceleration oat groundspeed latitude longitude nav_1_freq nav_2_freq obs_1 fuel_quantity_left_main fuel_quantity_right_main eng_1_fuel_flow eng_1_oil_press eng_1_oil_temp eng_1_cht_1 eng_1_cht_2 eng_1_cht_3 eng_1_cht_4 eng_1_egt_1 eng_1_egt_2 eng_1_egt_3 eng_1_egt_4 system_1_volts system_2_volts system_1_amps system_2_amps
#min 2.12954e+08 24335 0 0 835 -0.32 -1248.69 0 0.2 0.4 -7.81 -32.32 511.9 0 -0.38 -0.17 12.2 0 47.8862 -97.1724 109.1 109.1 47.9 10.73 15.7 1.14 47.27 70.45 86.07 95.78 88.33 97.06 805.98 803.87 662.91 677.22 25 25 -16.5 -0.7
#max 2.1296e+08 24335 2.22507e-308 6.037e+06 3659.9 122.87 1893.1 127 359 359.6 19.69 32.63 2628.5 2.22507e-308 0.48 0.22 21.8 127.51 48.2102 2.22507e-308 109.1 109.1 356.3 24 23.94 16.26 75.6 172.16 354.72 365.43 352.65 358.41 1510.86 1512.43 1525.26 1522.29 28.2 28.2 11.4 0.5
#avg 2.12957e+08 24335 0 3.01498e+06 1674.45 71.6515 -4.80543 74.1497 171.224 175.295 2.26763 -1.82601 1917.88 0 0.00666438 -0.0101029 16.133 72.4147 48.1016 -96.869 109.1 109.1 82.6629 16.7609 20.4875 7.92465 63.9475 149.366 288.129 296.762 293.997 299.193 1232.25 1221.98 1232.29 1226.28 28.0213 28.0221 0.993054 0.0343337
#dev 1457.75 0 0 1.52033e+06 655.686 27.6891 302.393 29.044 83.278 88.286 3.0725 5.33393 540.348 0 0.0467385 0.0229138 1.56557 28.3214 0.102318 0.180352 1.19798e-11 1.19798e-11 55.3244 2.614 1.28986 3.96965 4.4814 15.3652 28.2898 28.666 32.7113 31.4057 116.949 121.839 121.182 115.66 0.114958 0.111588 0.787751 0.0585263
#min delta 1 0 0 1 -34.5 -22.43 -603.91 -23 -352.4 -357.7 -6.65 -13.58 -405.9 0 -0.52 -0.25 -0.3 -4.92 -0.000885 -0.0017319 0 0 -308.4 -0.56 -0.49 -4.19 -6.84 -0.21 -1.52 -1.83 -1.74 -1.63 -41.44 -41.26 -52.95 -61.46 -2 -1.7 -13.8 -0.4
#max delta 1 2.22507e-308 2.22507e-308 2000 41.9 23.28 751.2 24 358.7 359.2 9.75 13.63 848.4 2.22507e-308 0.64 0.23 0.3 4.41 0.0008621 0.0013123 2.22507e-308 2.22507e-308 187.4 0.48 0.88 11.1 14 0.46 1.93 2.02 1.94 2.01 63.12 55.79 76.57 66.4 2.3 2.3 20.8 1.1
#avg delta 1 0 0 1035.5 0.000703138 -1.9516e-19 0.0040782 0 0.0297891 0.0151432 8.74636e-05 0.000118333 -0.127234 0 -4.5815e-20 -3.42994e-06 0.000291545 0 6.93363e-08 -4.05591e-08 0 0 0.0101526 -0.00145601 -0.000692849 -0.000433888 -0.00366146 0.0150815 0.0298611 0.0303293 0.0286417 0.0297496 -0.0238501 -0.0252735 -0.0295661 -0.0211645 -0.000325845 -0.000308695 -0.00291545 -0.000205797
#dev delta 2 0 0 2071 5.43351 0.709004 65.7663 0.726462 2.753 2.66254 0.476491 1.25125 13.2378 0 0.0480329 0.0204433 0.0148695 0.511686 0.000227979 0.000354435 0 0 0.126249 0.0523098 0.0528046 0.122772 0.301495 0.0457248 0.336179 0.35871 0.339703 0.346238 2.35003 2.40805 2.70621 2.37315 0.0232001 0.0239545 0.181107 0.025814
 212954305 24335 0 0 835.60 0.00 -18.45 0.00 183.70 266.50 1.0300 -0.5600 1247.70 0.000 -0.010 0.010 19.80 0.000 47.9481888 -97.1721878 109.100 109.100 168.9 21.370 21.540 3.010 67.16 70.450 86.07 95.78 88.33 97.06 1052.47 1033.61 1041.13 1038.59 28.00 28.00 4.50 0.50
 212954306 24335 0 1000 835.60 0.00 -18.45 0.00 183.70 266.50 1.0300 -0.5600 1247.70 0.000 -0.010 0.010 19.80 0.000 47.9481888 -97.1721878 109.100 109.100 168.9 21.370 21.540 3.010 67.16 70.450 86.07 95.78 88.33 97.06 1052.47 1033.61 1041.13 1038.59 28.00 28.00 4.50 0.50
 212954307 24335 0 1001 835.30 0.00 -30.76 0.00 183.60 266.50 1.0400 -0.5600 1249.90 0.000 0.000 0.010 19.80 0.000 47.9481888 -97.1721878 109.100 109.100 168.9 21.420 21.540 3.010 67.19 70.480 86.82 96.69 89.08 97.92 1057.21 1038.50 1043.22 1041.97 28.00 28.00 4.40 0.50
 212954308 24335 0 2000 835.20 0.00 -9.60 0.00 183.60 266.50 1.0500 -0.5500 1251.90 0.000 -0.010 0.010 19.80 0.000 47.9481888 -97.1721878 109.100 109.100 168.9 21.470 21.490 2.980 67.17 70.510 87.52 97.55 89.90 98.74 1061.02 1043.66 1044.73 1045.18 28.00 28.00 4.30 0.50
 212954309 24335 0 3000 835.00 0.00 13.23 0.00 183.60 266.50 1.0400 -0.5500 1253.70 0.000 0.010 0.010 19.80 0.000 47.9481888 -97.1721878 109.100 109.100 168.9 21.470 21.490 2.940 67.23 70.540 88.43 98.49 90.71 99.65 1064.66 1048.13 1046.62 1048.94 28.00 28.00 4.40 0.50
 212954310 24335 0 4000 837.10 0.00 18.69 0.00 183.60 266.50 1.0000 -0.5400 1257.90 0.000 -0.040 0.000 19.80 0.000 47.9481812 -97.1721802 109.100 109.100 168.9 21.420 21.540 2.880 67.35 70.560 89.35 99.51 91.61 100.61 1069.82 1052.98 1049.52 1053.32 28.00 28.00 4.30 0.50
 212954311 24335 0 5000 836.80 0.00 -1.84 0.00 183.60 266.50 1.0500 -0.5400 1260.40 0.000 0.030 0.010 19.80 0.000 47.9481812 -97.1721878 109.100 109.100 168.9 21.420 21.490 2.860 67.37 70.600 90.15 100.41 92.43 101.49 1075.34 1058.26 1053.32 1058.43 28.00 28.00 4.30 0.50
 212954312 24335 0 6000 837.30 0.00 12.38 0.00 183.60 266.50 1.1100 -0.5400 1266.50 0.000 0.050 0.010 19.80 0.000 47.9481812 -97.1721878 109.100 109.100 168.9 21.470 21.490 2.780 67.51 70.630 91.19 101.42 93.32 102.46 1082.70 1065.10 1059.13 1063.69 28.00 28.00 4.20 0.50
 212954313 24335 0 8000 837.70 0.00 3.20 0.00 183.60 266.50 1.0800 -0.5300 1269.70 0.000 0.020 0.000 19.80 0.000 47.9481812 -97.1721878 109.100 109.100 168.9 21.470 21.390 2.620 67.54 70.690 92.68 103.18 94.92 104.19 1097.09 1081.32 1067.71 1074.41 28.00 28.00 4.20 0.50
 212954314 24335 0 9000 837.90 0.00 1.48 0.00 183.60 266.50 1.0400 -0.5400 1271.20 0.000 -0.010 0.010 19.80 0.000 47.9481812 -97.1721878 109.100 109.100 168.9 21.420 21.390 2.520 67.58 70.720 93.51 104.11 95.82 105.07 1105.95 1091.65 1073.18 1082.44 28.00 28.00 4.20 0.50
 212954315 24335 0 10000 836.10 0.00 -4.13 0.00 183.60 266.50 1.0700 -0.5200 1268.30 0.000 -0.010 0.020 19.80 0.000 47.9481888 -97.1721878 109.100 109.100 168.9 21.470 21.390 2.510 67.51 70.750 94.38 105.08 96.63 105.99 1116.83 1103.34 1080.69 1092.10 28.00 28.00 4.30 0.50
 212954316 24335 0 11000 836.50 0.00 6.64 0.00 183.60 266.50 1.0500 -0.5400 1267.00 0.000 0.020 0.000 19.80 0.000 47.9481888 -97.1721878 109.100 109.100 168.9 21.420 21.440 2.400 67.44 70.790 95.26 106.00 97.52 106.90 1129.37 1117.74 1089.92 1104.40 28.00 28.00 4.20 0.50
 212954317 24335 0 12000 836.30 0.00 23.30 0.00 183.60 266.50 1.0800 -0.5200 1259.90 0.000 0.030 0.020 19.80 0.000 47.9481888 -97.1721878 109.100 109.100 168.9 21.420 21.390 2.350 67.25 70.820 96.22 107.09 98.51 107.86 1145.70 1133.79 1101.95 1120.16 28.00 28.00 4.30 0.50
 212954318 24335 0 14000 836.20 0.00 17.67 0.00 183.60 266.50 1.0100 -0.5400 1256.40 0.000 -0.010 0.010 19.50 0.000 47.9481888 -97.1721878 109.100 109.100 168.9 21.420 21.350 2.340 67.17 70.880 97.94 108.90 100.21 109.74 1178.15 1168.06 1125.03 1148.48 28.00 28.00 4.10 0.40
 212954319 24335 0 15000 836.20 0.00 -9.16 0.00 183.60 266.50 1.0300 -0.5200 1253.80 0.000 -0.010 0.010 19.50 0.000 47.9481888 -97.1721878 109.100 109.100 168.9 21.420 21.300 2.280 67.09 70.920 98.95 109.87 101.11 110.63 1193.73 1183.39 1137.51 1162.65 28.00 28.00 4.20 0.50
 212954320 24335 0 16000 837.80 0.00 -6.77 0.00 183.60 266.50 1.0200 -0.5300 1252.20 0.000 -0.020 0.000 19.50 0.000 47.9481888 -97.1721802 109.100 109.100 168.9 21.420 21.300 2.290 67.10 70.950 99.85 110.85 102.05 111.60 1208.61 1198.21 1149.57 1176.84 28.00 28.00 4.20 0.50
 212954321 24335 0 17000 837.50 0.00 1.83 0.00 183.60 266.50 1.0400 -0.5100 1245.20 0.000 0.020 0.010 19.50 0.000 47.9481888 -97.1721878 109.100 109.100 168.9 21.420 21.300 2.280 66.89 70.990 100.82 111.99 103.10 112.59 1224.07 1211.26 1161.71 1190.86 28.00 28.00 4.10 0.50
 212954322 24335 0 19000 837.60 0.00 4.60 0.00 183.60 266.50 1.0200 -0.5400 1240.00 0.000 0.040 0.000 19.50 0.000 47.9481888 -97.1721878 109.100 109.100 168.9 21.470 21.300 2.220 66.79 71.060 102.75 113.92 104.99 114.60 1248.46 1233.92 1183.16 1212.79 28.00 28.00 4.00 0.50
 212954323 24335 0 20000 837.90 0.00 -18.56 0.00 183.60 266.50 0.9900 -0.5100 1236.60 0.000 -0.010 0.010 19.50 0.000 47.9481812 -97.1721878 109.100 109.100 168.9 21.470 21.300 2.260 66.68 71.090 103.66 114.99 105.90 115.53 1258.74 1243.56 1191.43 1222.87 28.00 28.00 3.80 0.40
 212954324 24335 0 21000 838.00 0.00 -23.86 0.00 183.60 266.50 0.9600 -0.5200 1242.70 0.000 -0.020 0.010 19.50 0.000 47.9481812 -97.1721878 109.100 109.100 168.9 21.420 21.300 2.290 66.81 71.130 104.44 115.78 106.77 116.38 1268.34 1251.87 1197.13 1230.51 28.00 28.00 4.00 0.50
 212954325 24335 0 22000 837.00 0.00 -13.68 0.00 183.60 266.50 0.9700 -0.5100 1246.80 0.000 -0.020 0.000 19.50 0.000 47.9481812 -97.1721878 109.100 109.100 168.9 21.420 21.300 2.270 66.88 71.170 105.54 116.87 107.88 117.50 1277.68 1256.95 1203.21 1237.59 28.00 28.00 4.00 0.50
 212954326 24335 0 24000 837.60 0.00 -9.00 0.00 183.60 266.50 0.9900 -0.5200 1248.30 0.000 0.040 0.010 19.50 0.000 47.9481812 -97.1721878 109.100 109.100 168.9 21.470 21.300 2.310 66.89 71.240 107.45 118.89 109.82 119.40 1290.11 1265.18 1212.69 1246.74 28.00 28.00 4.00 0.40
 212954327 24335 0 25000 837.60 0.00 -3.45 0.00 183.60 266.50 0.9700 -0.5100 1244.60 0.000 0.020 0.010 19.50 0.000 47.9481812 -97.1721878 109.100 109.100 168.9 21.420 21.300 2.290 66.82 71.270 108.45 119.86 110.80 120.40 1295.98 1269.82 1217.39 1251.15 28.00 28.00 4.00 0.40
 212954328 24335 0 26000 837.60 0.00 -11.77 0.00 183.60 266.50 0.9300 -0.4900 1247.60 0.000 0.000 0.010 19.50 0.000 47.9481812 -97.1721878 109.100 109.100 168.9 21.420 21.350 2.260 66.84 71.310 109.48 120.95 111.82 121.35 1300.94 1272.79 1222.09 1255.65 28.00 28.00 4.00 0.40
 212954329 24335 0 27000 837.60 0.00 -12.94 0.00 183.60 266.50 0.9000 -0.4900 1246.30 0.000 -0.020 0.010 19.50 0.000 47.9481812 -97.1721878 109.100 109.100 168.9 21.420 21.350 2.240 66.85 71.350 110.31 121.85 112.80 122.37 1305.30 1276.26 1224.65 1258.83 28.00 28.00 4.00 0.40
 212954330 24335 0 28000 838.40 0.00 -15.86 0.00 183.60 266.50 0.9700 -0.5100 1246.10 0.000 0.010 0.000 19.50 0.000 47.9481812 -97.1721878 109.100 109.100 168.9 21.370 21.390 2.300 66.81 71.380 111.38 122.90 113.79 123.33 1308.67 1279.87 1228.15 1262.83 28.00 28.00 4.00 0.40
 212954331 24335 0 29000 838.00 0.00 1.98 0.00 183.60 266.50 0.9800 -0.5100 1252.50 0.000 0.010 0.010 19.50 0.000 47.9481812 -97.1721878 109.100 109.100 168.9 21.420 21.390 2.250 66.97 71.420 112.40 123.93 114.85 124.35 1312.34 1283.07 1230.37 1266.06 28.00 28.00 4.00 0.40
 212954332 24335 0 30000 838.10 0.00 30.14 0.00 183.60 266.50 0.9600 -0.5200 1249.50 0.000 0.010 0.020 19.50 0.000 47.9481812 -97.1721878 109.100 109.100 168.9 21.370 21.390 2.260 66.85 71.460 113.48 124.99 115.96 125.38 1316.06 1285.84 1233.13 1267.78 28.00 28.00 4.00 0.40
 212954333 24335 0 31000 838.20 0.00 14.18 0.00 183.60 266.50 0.9600 -0.5200 1253.80 0.000 0.010 0.010 19.50 0.000 47.9481812 -97.1721878 109.100 109.100 168.9 21.370 21.390 2.280 66.96 71.500 114.50 125.93 116.87 126.33 1320.04 1286.82 1236.32 1270.21 28.00 28.00 4.00 0.40
 212954334 24335 0 32000 838.20 0.00 -6.68 0.00 183.60 266.50 0.9600 -0.5300 1253.40 0.000 0.030 0.020 19.50 0.000 47.9481812 -97.1721878 109.100 109.100 168.9 21.370 21.390 2.290 66.89 71.530 115.44 126.95 117.92 127.33 1322.56 1287.38 1238.36 1272.52 28.00 28.00 3.90 0.40
 212954335 24335 0 33000 838.20 0.00 -7.42 0.00 183.60 266.50 0.9400 -0.5100 1254.50 0.000 -0.010 0.010 19.50 0.000 47.9481812 -97.1721878 109.100 109.100 168.9 21.370 21.390 2.250 66.95 71.570 116.50 128.04 119.02 128.42 1325.16 1288.86 1240.30 1275.45 28.00 28.00 4.00 0.40
 212954336 24335 0 34000 837.60 0.00 13.80 0.00 183.60 266.50 0.9600 -0.5400 1255.20 0.000 -0.010 0.010 19.50 0.000 47.9481812 -97.1721878 109.100 109.100 168.9 21.320 21.390 2.270 66.95 71.610 117.60 129.02 120.01 129.34 1327.24 1291.50 1242.21 1276.76 28.00 28.00 3.80 0.40
 212954337 24335 0 35000 837.90 0.00 15.93 0.00 183.60 266.50 0.9400 -0.5300 1256.80 0.000 -0.010 0.010 19.50 0.000 47.9481812 -97.1721878 109.100 109.100 168.9 21.320 21.390 2.240 66.94 71.650 118.61 130.11 121.12 130.43 1329.10 1294.36 1243.39 1277.49 28.00 28.00 3.90 0.40
 212954338 24335 0 36000 837.80 0.00 2.17 0.00 183.60 266.50 1.0000 -0.5100 1255.90 0.000 0.010 0.010 19.50 0.000 47.9481812 -97.1721878 109.100 109.100 168.9 21.320 21.440 2.220 66.71 71.690 119.71 131.16 122.17 131.44 1330.72 1297.84 1244.06 1278.94 28.00 28.00 3.90 0.40
 212954339 24335 0 37000 837.80 0.00 -16.58 0.00 183.60 266.50 1.0800 -0.5200 1002.00 0.000 0.000 0.020 19.50 0.000 47.9481812 -97.1721878 109.100 109.100 168.9 21.320 21.440 1.910 59.87 71.730 120.78 132.16 123.25 132.45 1322.67 1292.16 1234.52 1274.31 27.90 27.90 3.70 0.40
 212954340 24335 0 38000 837.80 0.00 -45.43 0.00 183.60 266.50 1.1000 -0.5400 825.80 0.000 -0.020 0.020 19.50 0.000 47.9481812 -97.1721878 109.100 109.100 168.9 21.320 21.440 1.910 57.07 71.770 121.82 133.21 124.24 133.46 1291.69 1263.88 1209.91 1254.95 27.30 27.30 -1.80 0.20
 212954341 24335 0 39000 837.80 0.00 -32.39 0.00 183.60 266.50 1.0900 -0.5400 890.10 0.000 0.020 0.010 19.50 0.000 47.9481812 -97.1721878 109.100 109.100 168.9 21.320 21.390 1.850 58.87 71.810 122.62 134.25 125.31 134.48 1254.52 1229.40 1189.81 1230.43 27.90 27.90 3.70 0.40
 212954342 24335 0 40000 838.40 0.00 -16.93 0.00 183.60 266.50 1.0700 -0.5200 949.10 0.000 -0.020 0.000 19.50 0.000 47.9481888 -97.1721878 109.100 109.100 168.9 21.320 21.390 1.880 60.31 71.850 123.86 135.24 126.35 135.44 1224.35 1201.24 1161.51 1205.53 28.00 28.00 3.90 0.40
 212954343 24335 0 41000 838.10 0.00 -14.44 0.00 183.60 266.50 1.0800 -0.5300 964.60 0.000 -0.010 0.000 19.50 0.000 47.9481888 -97.1721878 109.100 109.100 168.9 21.320 21.390 1.810 60.47 71.890 124.79 136.27 127.41 136.40 1205.01 1182.04 1143.89 1185.02 28.00 28.00 4.00 0.40
 212954344 24335 0 42000 838.10 0.00 4.54 0.00 183.60 266.50 1.0500 -0.5400 965.20 0.000 0.000 0.010 19.50 0.000 47.9481812 -97.1721878 109.100 109.100 168.9 21.270 21.390 1.820 60.45 71.930 125.85 137.26 128.48 137.37 1190.64 1167.80 1128.25 1169.13 28.00 28.00 3.90 0.40
 212954345 24335 0 43000 838.10 0.00 1.04 0.00 183.60 266.50 1.0400 -0.5300 967.40 0.000 0.000 0.010 19.50 0.000 47.9481812 -97.1721878 109.100 109.100 168.9 21.270 21.390 1.830 60.46 71.970 127.01 138.25 129.48 138.32 1178.72 1154.53 1115.33 1155.91 27.90 27.90 3.90 0.40
 212954346 24335 0 44000 838.20 0.00 8.44 0.00 183.60 266.50 1.0500 -0.5500 969.50 0.000 0.010 0.010 19.50 0.000 47.9481812 -97.1721878 109.100 109.100 168.9 21.270 21.390 1.820 60.50 72.010 127.82 139.22 130.48 139.25 1168.18 1143.38 1108.16 1144.75 28.00 28.00 3.90 0.40
 212954347 24335 0 45000 838.20 0.00 1.24 0.00 183.60 266.50 1.0700 -0.5200 972.30 0.000 0.010 0.020 19.50 0.000 47.9481812 -97.1721878 109.100 109.100 168.9 21.320 21.390 1.740 60.58 72.050 129.13 140.20 131.54 140.21 1159.23 1133.15 1098.03 1134.51 28.00 28.00 3.90 0.40
 212954348 24335 0 46000 837.70 0.00 6.83 0.00 183.60 266.50 1.0500 -0.5600 968.40 0.000 0.000 0.020 19.50 0.000 47.9481812 -97.1721878 109.100 109.100 168.9 21.370 21.350 1.860 60.53 72.090 130.12 141.27 132.62 141.24 1150.44 1123.38 1090.38 1124.85 27.90 27.90 3.70 0.40
 212954349 24335 0 47000 838.10 0.00 14.09 0.00 183.60 266.50 1.0500 -0.5200 970.40 0.000 -0.010 0.010 19.50 0.000 47.9481812 -97.1721878 109.100 109.100 168.9 21.370 21.390 1.820 60.58 72.130 131.14 142.23 133.59 142.20 1143.28 1114.85 1084.46 1115.69 28.00 28.00 3.80 0.40
 212954350 24335 0 48000 838.30 0.00 2.78 0.00 183.60 266.50 1.0800 -0.5400 970.00 0.000 0.020 0.010 19.50 0.000 47.9481812 -97.1721878 109.100 109.100 168.9 21.370 21.390 1.800 60.55 72.170 132.21 143.10 134.54 143.03 1136.28 1106.57 1077.60 1107.03 28.00 28.00 3.80 0.40
 212954351 24335 0 49000 838.30 0.00 3.14 0.00 183.60 266.50 1.0500 -0.5300 967.80 0.000 0.000 0.010 19.50 0.000 47.9481812 -97.1721878 109.100 109.100 168.9 21.370 21.390 1.790 60.49 72.210 133.32 144.12 135.58 144.04 1129.55 1098.08 1072.63 1100.47 28.00 28.00 3.60 0.40
 212954352 24335 0 50000 838.40 0.00 0.45 0.00 183.60 266.50 1.0200 -0.5200 968.40 0.000 0.010 0.010 19.50 0.000 47.9481812 -97.1721878 109.100 109.100 168.9 21.370 21.390 1.800 60.50 72.240 134.34 145.07 136.56 144.96 1124.78 1091.71 1067.82 1095.32 28.00 28.00 3.80 0.40
 212954353 24335 0 51000 838.50 0.00 -8.70 0.00 183.60 266.50 1.0400 -0.5300 969.60 0.000 -0.010 0.010 19.50 0.000 47.9481812 -97.1721878 109.100 109.100 168.9 21.370 21.390 1.790 60.53 72.280 135.34 146.02 137.51 145.88 1119.85 1086.80 1063.05 1090.85 28.00 28.00 3.80 0.40
 212954354 24335 0 52000 839.30 0.00 -17.07 0.00 183.60 266.50 1.0300 -0.5300 969.60 0.000 0.000 0.010 19.50 0.000 47.9481888 -97.1721878 109.100 109.100 168.9 21.370 21.390 1.820 60.51 72.320 136.27 146.95 138.47 146.78 1114.58 1082.01 1058.77 1086.23 27.90 27.90 3.70 0.40
 212954355 24335 0 53000 838.90 0.00 -22.94 0.00 183.60 266.50 1.0300 -0.5300 969.20 0.000 0.000 0.000 19.50 0.000 47.9481812 -97.1721878 109.100 109.100 168.9 21.370 21.440 1.790 60.50 72.360 137.29 147.89 139.41 147.71 1110.37 1077.71 1055.33 1081.56 28.00 28.00 3.60 0.40
 212954356 24335 0 54000 839.00 0.00 -19.51 0.00 183.40 266.50 1.0200 -0.5200 969.40 0.000 0.000 0.000 19.50 0.000 47.9481812 -97.1721878 109.100 109.100 168.9 21.370 21.440 1.800 60.50 72.400 138.38 148.80 140.36 148.59 1107.69 1073.82 1051.41 1077.90 28.00 28.00 3.70 0.40
 212954357 24335 0 55000 839.10 0.00 -6.23 0.00 183.40 266.50 1.0100 -0.5200 967.50 0.000 -0.010 0.000 19.50 0.000 47.9481812 -97.1721878 109.100 109.100 168.9 21.370 21.390 1.770 60.43 72.430 139.37 149.71 141.29 149.48 1106.78 1070.01 1047.40 1075.77 28.00 28.00 3.80 0.40
 212954358 24335 0 56000 839.10 0.00 13.75 0.00 183.40 266.50 0.9900 -0.5100 967.40 0.000 -0.010 0.000 19.50 0.000 47.9481812 -97.1721878 109.100 109.100 168.9 21.370 21.440 1.810 60.42 72.470 140.31 150.67 142.27 150.41 1106.39 1067.74 1045.71 1074.74 28.00 28.00 3.70 0.40
 212954359 24335 0 57000 839.00 0.00 1.28 0.00 183.40 266.50 1.0100 -0.5200 971.50 0.000 0.000 0.010 19.50 0.000 47.9481812 -97.1721878 109.100 109.100 168.9 21.370 21.390 1.790 60.49 72.510 141.29 151.64 143.23 151.38 1105.44 1066.13 1045.60 1071.86 28.00 28.00 3.70 0.40
 212954360 24335 0 58000 838.40 0.00 -13.17 0.00 183.50 266.50 1.0100 -0.5200 971.40 0.000 0.000 0.010 19.50 0.000 47.9481812 -97.1721878 109.100 109.100 168.9 21.370 21.390 1.840 60.48 72.550 142.26 152.44 144.06 152.17 1103.03 1062.58 1044.57 1068.60 28.00 28.00 3.60 0.30
 212954361 24335 0 59000 838.70 0.00 -15.49 0.00 183.50 266.50 1.0100 -0.5200 970.60 0.000 0.000 0.010 19.50 0.000 47.9481812 -97.1721878 109.100 109.100 168.9 21.370 21.440 1.800 60.51 72.590 143.23 153.31 144.99 153.00 1100.29 1059.52 1043.38 1065.55 28.00 28.00 3.70 0.40
 212954362 24335 0 60000 838.80 0.00 -3.42 0.00 183.50 266.50 1.0100 -0.5200 970.80 0.000 0.000 0.010 19.50 0.000 47.9481812 -97.1721878 109.100 109.100 168.9 21.370 21.440 1.840 60.52 72.620 144.30 154.23 145.90 153.88 1096.82 1057.53 1042.20 1062.26 28.00 28.00 3.70 0.40
 212954363 24335 0 61000 838.70 0.00 -2.77 0.00 183.40 266.50 1.0000 -0.5300 969.90 0.000 -0.020 0.000 19.50 0.000 47.9481812 -97.1721878 109.100 109.100 168.9 21.370 21.440 1.770 60.47 72.660 145.23 155.11 146.75 154.77 1093.93 1054.83 1040.81 1058.95 28.00 28.00 3.70 0.40
 212954364 24335 0 62000 838.80 0.00 -4.63 0.00 183.50 266.50 1.0000 -0.5100 968.20 0.000 0.000 0.010 19.50 0.000 47.9481812 -97.1721878 109.100 109.100 168.9 21.370 21.490 1.800 60.45 72.700 146.37 156.07 147.73 155.73 1093.19 1053.52 1040.08 1056.62 28.00 28.00 3.60 0.30
 212954365 24335 0 63000 838.80 0.00 9.64 0.00 183.50 266.50 0.9900 -0.5200 969.70 0.000 0.000 0.020 19.50 0.000 47.9481812 -97.1721878 109.100 109.100 168.9 21.370 21.490 1.810 60.48 72.740 147.16 156.98 148.65 156.59 1092.39 1053.22 1039.56 1055.50 28.00 28.00 3.70 0.30
 212954366 24335 0 64000 839.00 0.00 -2.84 0.00 183.50 266.50 1.0200 -0.5200 971.70 0.000 0.000 0.020 19.50 0.000 47.9481812 -97.1721878 109.100 109.100 168.9 21.370 21.490 1.800 60.51 72.770 148.21 157.82 149.52 157.43 1091.44 1052.73 1039.43 1053.72 28.00 28.00 3.60 0.30
 212954367 24335 0 65000 838.50 0.00 -0.13 0.00 183.40 266.50 1.0100 -0.5300 972.50 0.000 0.000 0.010 19.50 0.000 47.9481812 -97.1721878 109.100 109.100 168.9 21.320 21.490 1.800 60.52 72.810 149.04 158.71 150.40 158.29 1089.60 1050.44 1038.01 1052.15 28.00 28.00 3.70 0.40
 212954368 24335 0 66000 838.40 0.00 9.18 0.00 183.40 266.50 1.0000 -0.5300 968.40 0.000 -0.020 0.000 19.50 0.000 47.9481812 -97.1721878 109.100 109.100 168.9 21.320 21.490 1.820 60.40 72.850 150.21 159.54 151.26 159.11 1089.14 1048.06 1035.52 1051.71 27.90 28.00 3.70 0.40
 212954369 24335 0 67000 838.40 0.00 6.69 0.00 183.40 266.50 1.0100 -0.5100 970.10 0.000 0.010 0.010 19.50 0.000 47.9481812 -97.1721878 109.100 109.100 168.9 21.320 21.490 1.790 60.43 72.890 151.13 160.41 152.14 159.97 1090.30 1047.18 1034.28 1051.91 28.00 28.00 3.60 0.30
 212954370 24335 0 68000 838.30 0.00 -1.65 0.00 183.40 266.50 1.0100 -0.5400 968.80 0.000 0.000 0.010 19.50 0.000 47.9481812 -97.1721878 109.100 109.100 168.9 21.320 21.490 1.840 60.38 72.920 152.00 161.24 152.96 160.81 1090.59 1046.67 1033.30 1052.51 28.00 28.00 3.60 0.30
 212954371 24335 0 69000 838.30 0.00 -1.68 0.00 183.40 266.50 1.0200 -0.5400 971.40 0.000 0.010 0.010 19.50 0.000 47.9481812 -97.1721878 109.100 109.100 168.9 21.320 21.490 1.760 60.46 72.960 153.01 162.08 153.82 161.62 1090.65 1046.89 1033.81 1052.51 28.00 28.00 3.60 0.30
 212954372 24335 0 70000 839.30 0.00 -0.06 0.00 183.40 266.50 1.0100 -0.5400 972.80 0.000 0.000 0.010 19.50 0.000 47.9481812 -97.1721878 109.100 109.100 168.9 21.320 21.440 1.800 60.44 73.000 153.85 162.87 154.65 162.45 1089.44 1046.57 1033.54 1051.73 28.00 28.00 3.60 0.40
 212954373 24335 0 71000 839.70 0.00 3.43 0.00 183.40 266.50 1.0100 -0.5200 973.20 0.000 0.010 0.020 19.50 0.000 47.9481812 -97.1721878 109.100 109.100 168.9 21.370 21.490 1.790 60.49 73.040 154.73 163.71 155.48 163.23 1087.28 1044.24 1032.63 1050.89 28.00 28.00 3.60 0.30
 212954374 24335 0 72000 839.70 0.00 4.45 0.00 183.40 266.50 1.0100 -0.5400 973.60 0.000 -0.010 0.000 19.50 0.000 47.9481812 -97.1721878 109.100 109.100 168.9 21.370 21.490 1.770 60.51 73.080 155.69 164.54 156.33 164.07 1085.96 1042.24 1032.00 1050.04 27.90 27.90 3.60 0.40
 212954375 24335 0 73000 839.90 0.00 3.81 0.00 183.40 266.50 1.0100 -0.5500 974.80 0.000 0.000 0.020 19.50 0.000 47.9481812 -97.1721878 109.100 109.100 168.9 21.420 21.440 1.780 60.51 73.110 156.57 165.35 157.14 164.86 1084.24 1040.18 1030.96 1049.43 28.00 28.00 3.50 0.30
 212954376 24335 0 74000 840.10 0.00 2.26 0.00 183.40 266.50 1.0100 -0.5600 973.40 0.000 -0.010 0.010 19.50 0.000 47.9481812 -97.1721878 109.100 109.100 168.9 21.420 21.490 1.760 60.48 73.150 157.48 166.14 157.93 165.66 1083.44 1038.61 1029.65 1049.19 28.00 28.00 3.60 0.30
 212954377 24335 0 75000 840.30 0.00 -2.78 0.00 183.40 266.50 1.0200 -0.5600 975.90 0.000 0.000 0.020 19.50 0.000 47.9481812 -97.1721878 109.100 109.100 168.9 21.420 21.440 1.780 60.55 73.190 158.35 166.93 158.73 166.45 1082.88 1037.76 1028.06 1048.29 27.90 28.00 3.50 0.30
 212954378 24335 0 76000 838.80 0.00 -0.17 0.00 183.40 266.50 1.0400 -0.5500 976.70 0.000 0.000 0.010 19.50 0.000 47.9481812 -97.1721878 109.100 109.100 168.9 21.470 21.440 1.760 60.52 73.230 159.24 167.71 159.54 167.21 1082.03 1035.87 1026.97 1046.77 28.00 28.00 3.50 0.30
 212954379 24335 0 77000 838.30 0.00 -0.01 0.00 183.30 266.50 1.0200 -0.5600 978.20 0.000 0.000 0.010 19.50 0.000 47.9481812 -97.1721878 109.100 109.100 168.9 21.470 21.490 1.800 60.51 73.260 160.21 168.49 160.33 167.99 1080.99 1034.47 1026.95 1045.84 28.00 28.00 3.50 0.30
 212954380 24335 0 78000 838.50 0.00 11.40 0.00 183.40 266.50 1.0300 -0.5300 975.80 0.000 -0.010 0.020 19.50 0.000 47.9481812 -97.1721878 109.100 109.100 168.9 21.470 21.490 1.850 60.50 73.300 160.98 169.28 161.15 168.76 1080.18 1033.89 1026.93 1044.45 28.00 28.00 3.50 0.30
 212954381 24335 0 79000 838.50 0.00 14.38 0.00 183.40 266.50 1.0500 -0.5500 976.20 0.000 -0.010 0.010 19.50 0.000 47.9481812 -97.1721878 109.100 109.100 168.9 21.470 21.440 1.820 60.51 73.340 161.86 170.02 161.94 169.54 1080.32 1033.96 1026.45 1042.81 28.00 28.00 3.60 0.30
 212954382 24335 0 80000 838.40 0.00 3.37 0.00 183.30 266.50 1.0800 -0.5600 979.70 0.000 -0.010 0.010 19.50 0.000 47.9481812 -97.1721878 109.100 109.100 168.9 21.470 21.440 1.790 60.59 73.380 162.64 170.80 162.70 170.29 1079.89 1033.12 1025.69 1042.52 28.00 28.00 3.50 0.30
 212954383 24335 0 81000 838.40 0.00 0.12 0.00 183.40 266.50 1.0500 -0.5400 978.70 0.000 0.000 0.020 19.50 0.000 47.9481812 -97.1721878 109.100 109.100 168.9 21.470 21.440 1.790 60.55 73.420 163.65 171.56 163.46 171.05 1078.73 1031.21 1024.28 1041.26 27.90 27.90 3.40 0.30
 212954384 24335 0 82000 838.80 0.00 -1.02 0.00 183.40 266.50 1.0700 -0.5700 978.50 0.000 0.010 0.000 19.50 0.000 47.9481773 -97.1721878 109.100 109.100 168.9 21.470 21.440 1.780 60.55 73.460 164.34 172.36 164.23 171.82 1076.89 1029.85 1024.01 1039.66 28.00 28.00 3.40 0.30
 212954385 24335 0 83000 839.20 0.00 -10.57 0.00 183.40 266.50 1.0500 -0.5500 979.40 0.000 0.010 0.000 19.50 0.000 47.9481812 -97.1721878 109.100 109.100 168.9 21.470 21.440 1.780 60.52 73.490 165.31 173.15 165.11 172.66 1076.10 1028.80 1023.51 1038.67 28.00 28.00 3.50 0.30
 212954386 24335 0 84000 839.40 0.00 -2.36 0.00 183.40 266.50 1.0400 -0.5600 979.60 0.000 -0.010 0.010 19.50 0.000 47.9481812 -97.1721878 109.100 109.100 168.9 21.470 21.390 1.770 60.51 73.530 166.22 173.91 165.85 173.42 1076.50 1027.90 1023.12 1037.18 28.00 28.00 3.50 0.30
 212954387 24335 0 85000 839.40 0.00 -12.09 0.00 183.30 266.50 1.0300 -0.5600 976.50 0.000 0.000 0.020 19.50 0.000 47.9481812 -97.1721878 109.100 109.100 168.9 21.470 21.390 1.790 60.47 73.570 167.05 174.65 166.63 174.14 1076.67 1027.22 1024.02 1035.69 28.00 28.00 3.50 0.30
 212954388 24335 0 86000 839.50 0.00 -21.70 0.00 183.30 266.50 1.0400 -0.5500 975.90 0.000 0.000 0.000 19.50 0.000 47.9481812 -97.1721878 109.100 109.100 168.9 21.470 21.390 1.750 60.46 73.610 167.89 175.38 167.35 174.87 1076.42 1026.84 1024.88 1034.50 28.00 28.00 3.40 0.30
 212954389 24335 0 87000 839.60 0.00 -24.41 0.00 183.30 266.50 1.0200 -0.5400 980.00 0.000 0.000 0.010 19.50 0.000 47.9481812 -97.1721878 109.100 109.100 168.9 21.470 21.390 1.760 60.56 73.650 168.70 176.16 168.17 175.58 1076.23 1026.65 1024.24 1034.14 27.90 28.00 3.40 0.30
 212954390 24335 0 89000 839.90 0.00 -0.59 0.00 183.30 266.50 1.0400 -0.5400 975.10 0.000 0.010 0.010 19.50 0.000 47.9481812 -97.1721878 109.100 109.100 168.9 21.550 21.440 1.750 60.41 73.730 170.40 177.57 169.52 177.03 1074.57 1024.30 1024.23 1033.01 28.00 28.00 3.50 0.30
 212954391 24335 0 90000 839.80 0.00 8.07 0.00 183.30 266.50 1.0400 -0.5400 978.60 0.000 0.000 0.000 19.50 0.000 47.9481812 -97.1721878 109.100 109.100 168.9 21.470 21.440 1.750 60.46 73.770 171.08 178.21 170.27 177.71 1073.94 1024.26 1024.09 1033.20 28.00 28.00 3.50 0.30
 212954392 24335 0 91000 839.80 0.00 1.82 0.00 183.30 266.50 1.0500 -0.5300 977.80 0.000 0.020 0.020 19.50 0.000 47.9481812 -97.1721878 109.100 109.100 168.9 21.470 21.440 1.800 60.45 73.810 171.91 178.90 170.98 178.42 1072.67 1024.25 1023.34 1033.63 28.00 28.00 3.40 0.30
 212954393 24335 0 92000 839.80 0.00 -0.55 0.00 183.30 266.50 1.0300 -0.5300 977.50 0.000 -0.010 0.010 19.50 0.000 47.9481812 -97.1721878 109.100 109.100 168.9 21.470 21.390 1.770 60.46 73.850 172.65 179.59 171.71 179.11 1071.93 1024.31 1023.49 1034.30 28.00 28.00 3.40 0.30
 212954394 24335 0 93000 839.80 0.00 -14.85 0.00 183.30 266.50 1.0300 -0.5200 978.90 0.000 0.000 0.010 19.50 0.000 47.9481812 -97.1721878 109.100 109.100 168.9 21.470 21.390 1.740 60.46 73.890 173.56 180.27 172.38 179.81 1071.12 1024.32 1021.79 1035.15 28.00 28.00 3.40 0.30
 212954395 24335 0 94000 839.80 0.00 -9.52 0.00 183.30 266.50 0.9600 -0.5300 978.30 0.000 0.010 0.010 19.50 0.000 47.9481773 -97.1721878 109.100 109.100 168.9 21.470 21.390 1.740 60.48 73.930 174.32 180.92 173.07 180.48 1070.11 1024.21 1019.39 1036.30 28.00 28.00 3.60 0.30
 212954396 24335 0 95000 840.20 0.00 -2.84 0.00 183.20 266.50 0.9100 -0.5300 978.50 0.000 -0.020 0.010 19.50 0.000 47.9481773 -97.1721878 109.100 109.100 168.9 21.470 21.440 1.740 60.47 73.960 175.02 181.61 173.80 181.15 1069.23 1023.06 1018.53 1036.10 28.00 28.00 3.50 0.30
 212954397 24335 0 96000 840.10 0.00 -87.69 0.00 183.30 266.50 0.9600 -0.4900 975.50 0.000 -0.040 0.010 19.50 0.000 47.9481773 -97.1721802 109.100 109.100 356.3 21.470 21.390 1.800 60.40 74.010 175.83 182.32 174.53 181.81 1068.86 1022.43 1018.70 1035.39 28.00 28.00 3.40 0.30
 212954398 24335 0 97000 840.10 0.00 -70.62 0.00 183.30 266.50 1.0200 -0.5600 977.80 0.000 0.020 0.010 19.50 0.000 47.9481773 -97.1721802 109.100 109.100 47.9 21.470 21.390 1.770 60.46 74.050 176.59 183.00 175.24 182.47 1069.45 1023.86 1018.40 1035.00 28.00 28.00 3.40 0.30
 212954399 24335 0 99000 840.10 0.00 18.04 0.00 183.30 266.50 0.9900 -0.5400 975.00 0.000 0.010 0.010 19.50 0.000 47.9481773 -97.1721802 109.100 109.100 47.9 21.470 21.390 1.780 60.40 74.120 178.13 184.34 176.59 183.89 1069.12 1025.10 1018.92 1033.34 28.00 28.00 3.40 0.30
 212954400 24335 0 100000 838.90 0.00 53.67 0.00 183.30 266.50 1.0200 -0.5100 971.10 0.000 -0.020 0.000 19.50 0.000 47.9481773 -97.1721802 109.100 109.100 47.9 21.550 21.390 1.800 60.28 74.160 178.82 184.90 177.22 184.48 1067.86 1024.72 1018.97 1033.10 28.00 28.00 3.40 0.30
 212954401 24335 0 101000 838.20 0.00 71.06 0.00 183.30 266.50 1.0400 -0.5400 971.90 0.000 0.000 0.020 19.50 0.000 47.9481773 -97.1721802 109.100 109.100 47.9 21.470 21.390 1.750 60.30 74.200 179.62 185.59 177.94 185.15 1066.38 1025.82 1019.49 1033.31 27.90 27.90 3.40 0.30
 212954402 24335 0 102000 838.30 0.00 44.82 0.00 183.30 266.50 1.0400 -0.5500 971.90 0.000 0.010 0.020 19.50 0.000 47.9481773 -97.1721802 109.100 109.100 47.9 21.470 21.390 1.790 60.33 74.240 180.17 186.16 178.54 185.78 1065.40 1026.76 1019.58 1032.78 28.00 28.00 3.40 0.30
 212954403 24335 0 103000 838.10 0.00 33.83 0.00 183.30 266.50 1.0700 -0.5300 968.00 0.000 0.000 0.010 19.50 0.000 47.9481773 -97.1721802 109.100 109.100 47.9 21.470 21.390 1.790 60.20 74.280 181.14 186.92 179.29 186.48 1066.63 1027.32 1017.55 1032.60 28.00 28.00 3.40 0.30
 212954404 24335 0 104000 838.00 0.00 14.08 0.00 183.30 266.50 1.0500 -0.5200 971.30 0.000 0.010 0.000 19.50 0.000 47.9481773 -97.1721802 109.100 109.100 47.9 21.470 21.350 1.770 60.31 74.320 181.81 187.47 179.94 187.11 1067.67 1027.12 1016.26 1032.97 27.90 28.00 3.40 0.30
 212954405 24335 0 105000 837.80 0.00 21.35 0.00 183.30 266.50 1.0700 -0.4900 973.80 0.000 -0.010 0.010 19.50 0.000 47.9481773 -97.1721802 109.100 109.100 47.9 21.470 21.390 1.830 60.34 74.360 182.48 188.12 180.57 187.76 1069.07 1027.46 1015.71 1032.09 28.00 28.00 3.30 0.30
 212954406 24335 0 106000 839.20 0.00 28.60 0.00 183.30 266.50 1.0300 -0.5400 977.10 0.000 -0.010 0.010 19.50 0.000 47.9481773 -97.1721802 109.100 109.100 47.9 21.470 21.390 1.820 60.34 74.400 183.19 188.70 181.22 188.36 1070.16 1027.13 1015.82 1031.36 28.00 28.00 3.40 0.30
 212954407 24335 0 107000 839.70 0.00 18.39 0.00 183.30 266.50 1.0700 -0.5200 976.30 0.000 0.000 0.010 19.50 0.000 47.9481773 -97.1721802 109.100 109.100 47.9 21.550 21.390 1.800 60.31 74.440 183.89 189.30 181.86 188.96 1070.14 1026.40 1016.82 1031.13 28.00 28.00 3.30 0.30
 212954408 24335 0 108000 839.80 0.00 16.08 0.00 183.30 266.50 1.0200 -0.5500 973.70 0.000 -0.010 0.010 19.50 0.000 47.9481773 -97.1721802 109.100 109.100 47.9 21.550 21.390 1.770 60.33 74.480 184.60 189.91 182.47 189.58 1069.94 1025.59 1018.06 1031.37 28.00 28.00 3.40 0.30
 212954409 24335 0 109000 840.00 0.00 14.56 0.00 183.30 266.50 1.0200 -0.5600 974.40 0.000 0.000 0.000 19.50 0.000 47.9481773 -97.1721802 109.100 109.100 47.9 21.470 21.390 1.770 60.32 74.520 185.36 190.55 183.08 190.19 1069.15 1025.08 1017.54 1032.48 28.00 28.00 3.40 0.30
 212954410 24335 0 110000 840.10 0.00 4.58 0.00 183.30 266.50 1.0300 -0.5400 974.80 0.000 0.000 0.010 19.50 0.000 47.9481773 -97.1721802 109.100 109.100 47.9 21.470 21.350 1.840 60.32 74.560 186.05 191.16 183.69 190.78 1068.79 1024.79 1016.76 1032.33 27.90 28.00 3.30 0.30
 212954411 24335 0 111000 840.20 0.00 4.92 0.00 183.30 266.50 1.0200 -0.5500 973.00 0.000 -0.010 0.010 19.50 0.000 47.9481773 -97.1721802 109.100 109.100 47.9 21.470 21.390 1.790 60.29 74.600 186.67 191.70 184.30 191.35 1068.88 1024.41 1016.51 1031.70 28.00 28.00 3.30 0.30
 212954412 24335 0 112000 838.60 0.00 -2.65 0.00 183.30 266.50 1.0000 -0.5500 973.70 0.000 -0.010 0.000 19.50 0.000 47.9481773 -97.1721802 109.100 109.100 47.9 21.470 21.350 1.790 60.30 74.640 187.37 192.25 184.94 191.97 1067.92 1024.38 1016.18 1030.70 28.00 28.00 3.40 0.30
 212954413 24335 0 113000 838.10 0.00 -11.56 0.00 183.30 266.50 1.0200 -0.5400 976.80 0.000 -0.010 0.010 19.50 0.000 47.9481773 -97.1721802 109.100 109.100 47.9 21.470 21.350 1.820 60.34 74.680 188.06 192.66 185.36 192.37 1066.66 1024.10 1016.40 1029.63 28.00 28.00 3.40 0.30
 212954414 24335 0 114000 837.60 0.00 -3.72 0.00 183.30 266.50 1.0300 -0.5400 978.00 0.000 -0.010 0.020 19.50 0.000 47.9481773 -97.1721802 109.100 109.100 47.9 21.470 21.350 1.770 60.30 74.720 187.94 192.62 185.36 192.34 1064.75 1023.36 1016.33 1027.41 28.00 28.00 3.40 0.30
 212954415 24335 0 115000 837.50 0.00 -2.97 0.00 183.30 266.50 1.0300 -0.5300 977.00 0.000 0.020 0.010 19.50 0.000 47.9481773 -97.1721802 109.100 109.100 47.9 21.470 21.350 1.740 60.28 74.760 188.55 193.27 186.05 193.02 1064.05 1023.33 1015.93 1026.30 28.00 28.00 3.40 0.30
 212954416 24335 0 116000 837.50 0.00 -16.79 0.00 183.30 266.50 1.0000 -0.5300 972.90 0.000 0.000 0.010 19.50 0.000 47.9481773 -97.1721802 109.100 109.100 47.9 21.550 21.350 1.790 60.24 74.800 189.88 194.27 187.10 194.02 1064.02 1023.17 1017.07 1025.83 28.00 28.00 3.40 0.30
 212954417 24335 0 117000 837.30 0.00 -3.47 0.00 183.20 266.50 1.0100 -0.5400 976.30 0.000 0.000 0.000 19.50 0.000 47.9481773 -97.1721802 109.100 109.100 47.9 21.550 21.390 1.800 60.32 74.840 189.99 194.29 187.10 194.02 1062.85 1022.80 1016.38 1024.70 28.00 28.00 3.40 0.30
 212954418 24335 0 118000 838.80 0.00 -1.56 0.00 183.20 266.50 0.9900 -0.5500 979.60 0.000 0.000 0.010 19.50 0.000 47.9481773 -97.1721802 109.100 109.100 47.9 21.550 21.390 1.760 60.38 74.880 190.55 194.73 187.62 194.56 1062.44 1021.99 1016.84 1024.54 28.00 28.00 3.40 0.30
 212954419 24335 0 119000 839.30 0.00 11.83 0.00 183.20 266.50 1.0000 -0.5500 982.60 0.000 -0.010 0.000 19.50 0.000 47.9481773 -97.1721802 109.100 109.100 47.9 21.550 21.350 1.790 60.45 74.920 191.21 195.27 188.22 195.09 1061.09 1020.52 1016.96 1024.96 28.00 28.00 3.30 0.30
 212954420 24335 0 120000 839.60 0.00 6.31 0.00 183.20 266.50 1.0000 -0.5500 984.20 0.000 0.000 0.010 19.50 0.000 47.9481773 -97.1721802 109.100 109.100 47.9 21.470 21.350 1.800 60.43 74.960 191.86 195.82 188.80 195.65 1060.05 1019.34 1016.81 1025.01 28.00 28.00 3.30 0.30
 212954421 24335 0 121000 839.70 0.00 -0.85 0.00 183.20 266.50 1.0000 -0.5800 986.00 0.000 0.010 0.020 19.50 0.000 47.9481773 -97.1721802 109.100 109.100 47.9 21.470 21.390 1.800 60.44 75.000 192.51 196.34 189.37 196.21 1058.83 1018.49 1016.79 1024.23 28.00 28.00 3.40 0.30
 212954422 24335 0 122000 839.90 0.00 -0.03 0.00 183.20 266.50 0.9900 -0.5600 982.60 0.000 0.000 0.010 19.50 0.000 47.9481773 -97.1721802 109.100 109.100 47.9 21.470 21.390 1.740 60.42 75.040 193.22 196.89 189.94 196.80 1057.39 1018.33 1017.20 1023.42 28.00 28.00 3.30 0.30
 212954423 24335 0 123000 840.10 0.00 7.85 0.00 183.20 266.50 1.0100 -0.5600 984.40 0.000 0.010 0.010 19.50 0.000 47.9481773 -97.1721802 109.100 109.100 47.9 21.420 21.390 1.740 60.43 75.090 193.99 197.53 190.58 197.37 1055.93 1017.98 1016.44 1023.03 28.00 28.00 3.40 0.30
 212954424 24335 0 124000 838.50 0.00 0.58 0.00 183.20 266.50 1.0300 -0.5700 983.90 0.000 0.010 0.000 19.50 0.000 47.9481773 -97.1721802 109.100 109.100 47.9 21.370 21.390 1.770 60.43 75.120 194.54 197.95 191.09 197.85 1055.82 1017.72 1015.92 1023.14 27.90 28.00 3.40 0.30
 212954425 24335 0 125000 838.00 0.00 0.02 0.00 183.20 266.50 1.0200 -0.5600 982.40 0.000 0.010 0.010 19.50 0.000 47.9481773 -97.1721802 109.100 109.100 47.9 21.370 21.390 1.770 60.36 75.170 195.27 198.56 191.72 198.50 1056.59 1018.15 1015.67 1023.27 28.00 28.00 3.30 0.30
 212954426 24335 0 126000 838.20 0.00 -3.01 0.00 183.20 266.50 1.0400 -0.5600 986.50 0.000 0.000 0.010 19.50 0.000 47.9481773 -97.1721802 109.100 109.100 47.9 21.370 21.390 1.790 60.44 75.210 195.86 199.04 192.24 198.99 1056.68 1018.81 1015.36 1023.57 28.00 28.00 3.30 0.20
 212954427 24335 0 127000 838.20 0.00 -14.95 0.00 183.20 266.50 1.0200 -0.5300 984.90 0.000 0.000 0.010 19.50 0.000 47.9481773 -97.1721802 109.100 109.100 47.9 21.370 21.390 1.770 60.43 75.250 196.40 199.45 192.70 199.45 1056.65 1017.68 1014.80 1023.81 28.00 28.00 3.20 0.30
 212954428 24335 0 128000 838.20 0.00 -0.69 0.00 183.10 266.50 1.0300 -0.5600 985.70 0.000 0.000 0.010 19.50 0.000 47.9481773 -97.1721802 109.100 109.100 47.9 21.370 21.390 1.780 60.44 75.290 197.06 199.93 193.25 199.95 1057.79 1017.06 1014.20 1023.88 28.00 28.00 3.40 0.30
 212954429 24335 0 129000 838.10 0.00 12.71 0.00 183.20 266.50 1.0400 -0.5400 985.50 0.000 0.000 0.020 19.50 0.000 47.9481773 -97.1721802 109.100 109.100 47.9 21.420 21.390 1.760 60.41 75.340 197.81 200.60 193.89 200.56 1057.78 1017.38 1013.44 1023.68 28.00 28.00 3.40 0.30
 212954430 24335 0 130000 839.70 0.00 14.94 0.00 183.10 266.50 1.0300 -0.5700 986.70 0.000 0.000 0.000 19.50 0.000 47.9481735 -97.1721802 109.100 109.100 47.9 21.370 21.390 1.770 60.40 75.380 198.38 201.10 194.44 201.09 1056.39 1018.41 1013.09 1024.22 27.90 27.90 3.20 0.30
 212954431 24335 0 131000 840.20 0.00 1.04 0.00 183.10 266.50 1.0300 -0.5300 987.30 0.000 -0.010 0.000 19.50 0.000 47.9481773 -97.1721802 109.100 109.100 47.9 21.420 21.390 1.730 60.45 75.420 198.99 201.49 194.93 201.57 1054.42 1017.79 1013.22 1025.50 28.00 28.00 3.40 0.30
 212954432 24335 0 132000 840.40 0.00 -7.28 0.00 183.20 266.50 1.0400 -0.5200 984.30 0.000 0.000 0.010 19.50 0.000 47.9481773 -97.1721802 109.100 109.100 47.9 21.420 21.390 1.750 60.36 75.460 199.51 201.91 195.38 202.02 1053.56 1015.58 1014.48 1025.77 28.00 28.00 3.30 0.30
 212954433 24335 0 133000 840.70 0.00 -13.40 0.00 183.10 266.50 1.0400 -0.5500 982.70 0.000 0.010 0.010 19.20 0.000 47.9481773 -97.1721802 109.100 109.100 47.9 21.370 21.440 1.740 60.34 75.500 200.15 202.50 196.01 202.61 1053.38 1015.28 1016.47 1026.51 28.00 28.00 3.40 0.20
 212954434 24335 0 134000 840.90 0.00 -1.30 0.00 183.10 266.50 1.0200 -0.5400 982.70 0.000 -0.010 0.010 19.20 0.000 47.9481773 -97.1721802 109.100 109.100 47.9 21.370 21.440 1.760 60.33 75.550 200.82 202.96 196.48 203.10 1052.50 1015.87 1017.99 1026.97 28.00 28.00 3.30 0.30
 212954435 24335 0 135000 841.10 0.00 2.30 0.00 183.10 266.50 1.0200 -0.5600 985.90 0.000 -0.010 0.020 19.20 0.000 47.9481773 -97.1721802 109.100 109.100 47.9 21.370 21.390 1.760 60.37 75.590 201.46 203.45 197.00 203.61 1052.14 1017.53 1018.27 1027.26 28.00 28.00 3.40 0.30
 212954436 24335 0 136000 840.30 0.00 4.47 0.00 183.10 266.50 1.0400 -0.5300 985.50 0.000 -0.010 0.010 19.20 0.000 47.9481773 -97.1721802 109.100 109.100 47.9 21.320 21.440 1.730 60.38 75.640 202.01 203.96 197.53 204.10 1052.18 1018.31 1018.14 1026.41 28.00 28.00 3.20 0.20
 212954437 24335 0 137000 839.90 0.00 13.18 0.00 183.10 266.50 1.0400 -0.5400 984.10 0.000 0.000 0.010 19.20 0.000 47.9481773 -97.1721802 109.100 109.100 47.9 21.320 21.440 1.790 60.33 75.680 202.55 204.38 198.06 204.56 1052.94 1018.16 1018.23 1026.19 28.00 28.00 3.40 0.30
 212954438 24335 0 138000 839.60 0.00 2.43 0.00 183.10 266.50 1.0200 -0.5600 986.00 0.000 0.000 0.010 19.20 0.000 47.9481773 -97.1721802 109.100 109.100 47.9 21.320 21.440 1.810 60.41 75.720 203.13 204.83 198.50 205.03 1053.08 1017.87 1018.74 1026.92 28.00 28.00 3.40 0.30
 212954439 24335 0 139000 839.60 0.00 -14.33 0.00 183.10 266.50 1.0200 -0.5300 987.60 0.000 0.020 0.010 19.20 0.000 47.9481773 -97.1721802 109.100 109.100 47.9 21.370 21.490 1.770 60.42 75.760 203.77 205.26 198.99 205.49 1053.56 1017.34 1018.71 1026.48 28.00 28.00 3.30 0.20
 212954440 24335 0 140000 839.60 0.00 -12.32 0.00 183.10 266.50 1.0100 -0.5400 987.60 0.000 0.000 0.020 19.20 0.000 47.9481773 -97.1721802 109.100 109.100 47.9 21.320 21.490 1.730 60.33 75.810 204.30 205.75 199.53 205.97 1056.12 1017.77 1017.62 1025.78 28.00 28.00 3.20 0.20
 212954441 24335 0 141000 839.50 0.00 -1.48 0.00 183.10 266.50 1.0300 -0.5300 987.50 0.000 0.020 0.010 19.20 0.000 47.9481773 -97.1721802 109.100 109.100 47.9 21.320 21.490 1.760 60.41 75.850 204.88 206.17 199.98 206.44 1057.22 1018.26 1016.92 1025.57 28.00 28.00 3.30 0.20
 212954442 24335 0 142000 839.40 0.00 5.61 0.00 183.10 266.50 1.0200 -0.5300 987.60 0.000 0.010 0.010 19.20 0.000 47.9481773 -97.1721802 109.100 109.100 47.9 21.370 21.490 1.790 60.42 75.900 205.57 206.68 200.48 206.92 1057.10 1019.09 1016.22 1025.23 28.00 28.00 3.30 0.20
 212954443 24335 0 143000 839.90 0.00 7.66 0.00 183.20 266.50 1.0000 -0.5300 987.30 0.000 -0.010 0.000 19.20 0.000 47.9481773 -97.1721802 109.100 109.100 47.9 21.420 21.540 1.790 60.38 75.940 206.09 207.16 200.99 207.39 1056.61 1018.72 1015.65 1025.58 28.00 28.00 3.30 0.30
 212954444 24335 0 144000 840.10 0.00 -5.17 0.00 183.20 266.50 1.0100 -0.5200 990.50 0.000 0.000 0.020 19.20 0.000 47.9481773 -97.1721802 109.100 109.100 47.9 21.420 21.540 1.750 60.41 75.990 206.71 207.58 201.50 207.95 1056.90 1018.62 1016.13 1026.07 28.00 28.00 3.30 0.30
 212954445 24335 0 145000 840.20 0.00 -3.39 0.00 183.20 266.50 1.0200 -0.5400 991.20 0.000 0.010 0.010 19.20 0.000 47.9481773 -97.1721802 109.100 109.100 47.9 21.470 21.540 1.800 60.46 76.030 207.17 207.94 201.89 208.31 1056.77 1018.24 1015.76 1026.82 28.00 28.00 3.30 0.20
 212954446 24335 0 146000 840.10 0.00 4.96 0.00 183.20 266.50 1.0200 -0.5300 986.70 0.000 -0.010 0.020 19.20 0.000 47.9481773 -97.1721802 109.100 109.100 47.9 21.420 21.490 1.810 60.35 76.070 207.73 208.35 202.34 208.76 1057.08 1019.29 1015.94 1028.28 28.00 28.00 3.30 0.30
 212954447 24335 0 147000 840.10 0.00 2.35 0.00 183.20 266.50 1.0000 -0.5200 983.50 0.000 -0.010 0.000 19.20 0.000 47.9481773 -97.1721802 109.100 109.100 47.9 21.420 21.490 1.750 60.26 76.120 208.28 208.82 202.81 209.17 1059.19 1022.35 1015.08 1029.22 28.00 28.00 3.40 0.30
 212954448 24335 0 148000 840.70 0.00 -3.33 0.00 183.20 266.50 1.0000 -0.5200 987.00 0.000 -0.010 0.010 19.20 0.000 47.9481773 -97.1721802 109.100 109.100 47.9 21.420 21.540 1.770 60.31 76.160 208.79 209.24 203.25 209.61 1060.28 1023.20 1014.80 1029.80 28.00 28.00 3.30 0.20
 212954449 24335 0 149000 840.60 0.00 -5.48 0.00 183.20 266.50 0.9900 -0.5200 986.50 0.000 -0.040 0.010 19.20 0.000 47.9481773 -97.1721802 109.100 109.100 47.9 21.420 21.490 1.770 60.33 76.210 209.44 209.68 203.74 210.05 1059.78 1022.50 1013.99 1030.05 28.00 28.00 3.30 0.20
 212954450 24335 0 150000 840.70 0.00 -0.76 0.00 183.20 266.50 1.0000 -0.5200 987.20 0.000 0.000 0.020 19.20 0.000 47.9481773 -97.1721802 109.100 109.100 47.9 21.470 21.490 1.770 60.33 76.260 209.87 210.08 204.19 210.52 1058.92 1021.92 1013.81 1030.11 28.00 28.00 3.20 0.20
 212954451 24335 0 151000 840.70 0.00 -2.51 0.00 183.20 266.50 1.0200 -0.5300 989.60 0.000 0.000 0.010 19.20 0.000 47.9481773 -97.1721802 109.100 109.100 47.9 21.420 21.490 1.750 60.36 76.300 210.58 210.61 204.72 211.05 1058.71 1021.08 1014.93 1029.89 28.00 28.00 3.30 0.20
 212954452 24335 0 152000 840.80 0.00 -3.16 0.00 183.20 266.50 1.0100 -0.5400 985.10 0.000 0.010 0.010 19.20 0.000 47.9481773 -97.1721802 109.100 109.100 47.9 21.420 21.490 1.750 60.24 76.350 211.10 211.07 205.20 211.48 1058.67 1020.83 1016.56 1031.11 28.00 28.00 3.30 0.30
 212954453 24335 0 153000 840.80 0.00 6.17 0.00 183.20 266.50 0.9900 -0.5100 988.80 0.000 -0.020 0.020 19.20 0.000 47.9481773 -97.1721802 109.100 109.100 47.9 21.470 21.490 1.790 60.29 76.390 211.60 211.44 205.62 211.90 1057.67 1020.39 1018.01 1031.55 27.90 27.90 3.10 0.20
 212954454 24335 0 154000 840.20 0.00 4.07 0.00 183.20 266.50 0.9900 -0.5200 986.70 0.000 0.000 0.000 19.20 0.000 47.9481735 -97.1721802 109.100 109.100 47.9 21.550 21.490 1.750 60.27 76.440 212.04 211.72 205.94 212.22 1056.55 1019.86 1018.86 1030.38 28.00 28.00 3.20 0.20
 212954455 24335 0 155000 839.90 0.00 8.86 0.00 183.20 266.50 1.0000 -0.4800 985.60 0.000 0.000 0.010 19.20 0.000 47.9481773 -97.1721802 109.100 109.100 47.9 21.470 21.490 1.750 60.24 76.490 212.67 212.20 206.42 212.63 1056.01 1019.19 1019.47 1029.23 28.00 28.00 3.20 0.20
 212954456 24335 0 156000 840.10 0.00 16.03 0.00 183.20 266.50 1.0000 -0.4900 986.10 0.000 -0.010 0.000 19.20 0.000 47.9481773 -97.1721802 109.100 109.100 47.9 21.550 21.490 1.770 60.28 76.530 213.19 212.64 206.89 213.12 1055.22 1018.83 1019.44 1028.70 28.00 28.00 3.20 0.20
 212954457 24335 0 157000 839.90 0.00 -2.14 0.00 183.20 266.50 0.9800 -0.4900 986.10 0.000 0.000 0.010 19.20 0.000 47.9481773 -97.1721802 109.100 109.100 47.9 21.550 21.490 1.760 60.22 76.580 213.60 212.95 207.23 213.47 1054.62 1018.73 1018.33 1028.03 28.00 28.00 3.30 0.20
 212954458 24335 0 158000 839.80 0.00 -1.16 0.00 183.20 266.50 0.9800 -0.4600 986.70 0.000 0.000 0.000 19.20 0.000 47.9481773 -97.1721802 109.100 109.100 47.9 21.470 21.490 1.750 60.26 76.620 214.05 213.36 207.64 213.87 1054.39 1018.67 1017.88 1027.40 28.00 28.00 3.30 0.20
 212954459 24335 0 159000 839.90 0.00 -13.88 0.00 183.20 266.50 0.9900 -0.4700 988.70 0.000 0.010 0.010 19.20 0.000 47.9481773 -97.1721802 109.100 109.100 47.9 21.470 21.490 1.760 60.33 76.670 214.57 213.77 208.11 214.30 1054.07 1017.95 1017.33 1027.52 28.00 28.00 3.20 0.20
 212954460 24335 0 160000 840.90 0.00 -9.60 0.00 183.20 266.50 0.9800 -0.4700 990.10 0.000 0.000 0.000 19.20 0.000 47.9481773 -97.1721802 109.100 109.100 47.9 21.550 21.440 1.770 60.34 76.720 215.17 214.25 208.60 214.81 1056.55 1019.35 1016.72 1028.94 28.00 28.00 3.30 0.20
 212954461 24335 0 161000 841.50 0.00 -20.67 0.00 183.20 266.50 0.9700 -0.4600 993.10 0.000 -0.010 0.010 19.20 0.000 47.9481773 -97.1721802 109.100 109.100 47.9 21.600 21.440 1.790 60.36 76.770 215.74 214.69 209.03 215.20 1058.46 1020.64 1016.73 1029.68 28.00 28.00 3.30 0.30
 212954462 24335 0 162000 841.30 0.00 -6.69 0.00 183.20 266.50 0.9800 -0.4600 990.00 0.000 0.000 0.000 19.20 0.000 47.9481773 -97.1721802 109.100 109.100 47.9 21.550 21.440 1.820 60.30 76.810 216.20 215.04 209.44 215.62 1059.62 1022.17 1017.53 1030.17 28.00 28.00 3.20 0.20
 212954463 24335 0 163000 841.40 0.00 -8.59 0.00 183.20 266.50 0.9400 -0.4600 990.10 0.000 0.000 0.010 19.20 0.000 47.9481773 -97.1721802 109.100 109.100 47.9 21.550 21.440 1.810 60.31 76.860 216.68 215.43 209.85 216.01 1060.67 1024.12 1019.69 1031.17 28.00 28.00 3.30 0.20
 212954464 24335 0 164000 841.60 0.00 -3.30 0.00 183.20 266.50 0.9800 -0.4700 988.30 0.000 0.010 0.000 19.20 0.000 47.9481773 -97.1721802 109.100 109.100 47.9 21.550 21.440 1.770 60.27 76.900 217.19 215.80 210.23 216.42 1061.17 1024.42 1021.75 1032.51 28.00 27.90 3.20 0.20
 212954465 24335 0 165000 841.70 0.00 -11.53 0.00 183.20 266.50 0.9700 -0.4700 989.10 0.000 0.010 0.010 19.20 0.000 47.9481773 -97.1721802 109.100 109.100 47.9 21.550 21.440 1.850 60.21 76.950 217.63 216.19 210.63 216.79 1061.59 1024.91 1022.91 1033.83 28.00 28.00 3.30 0.20
 212954466 24335 0 166000 840.20 0.00 -8.77 0.00 183.20 266.50 0.9400 -0.4600 988.90 0.000 0.000 0.000 19.20 0.000 47.9481735 -97.1721802 109.100 109.100 47.9 21.550 21.440 1.850 60.25 77.000 218.14 216.57 211.03 217.17 1062.35 1025.25 1022.05 1034.69 28.00 28.00 3.20 0.20
 212954467 24335 0 167000 839.80 0.00 -0.97 0.00 183.20 266.50 0.9300 -0.4700 989.60 0.000 -0.010 0.010 19.20 0.000 47.9481773 -97.1721802 109.100 109.100 47.9 21.550 21.440 1.750 60.24 77.050 218.72 216.97 211.43 217.59 1062.88 1026.85 1022.31 1034.78 27.90 27.90 3.20 0.30
 212954468 24335 0 168000 839.90 0.00 12.52 0.00 183.20 266.50 0.9600 -0.4800 990.20 0.000 0.000 0.000 19.20 0.000 47.9481773 -97.1721802 109.100 109.100 47.9 21.550 21.440 1.780 60.27 77.090 219.11 217.34 211.82 217.99 1064.16 1028.74 1022.92 1035.08 27.90 27.90 3.10 0.20
 212954469 24335 0 169000 839.80 0.00 5.17 0.00 183.20 266.50 0.9800 -0.4900 992.50 0.000 0.000 0.010 19.20 0.000 47.9481773 -97.1721802 109.100 109.100 47.9 21.550 21.440 1.810 60.28 77.140 219.58 217.73 212.18 218.36 1064.45 1030.51 1022.28 1034.89 27.90 27.90 3.20 0.20
 212954470 24335 0 170000 839.70 0.00 0.21 0.00 183.20 266.50 0.9600 -0.4700 990.20 0.000 -0.010 0.010 19.20 0.000 47.9481773 -97.1721802 109.100 109.100 47.9 21.550 21.490 1.810 60.27 77.190 220.03 218.05 212.58 218.72 1064.40 1032.37 1022.02 1035.76 27.90 27.90 3.10 0.20
 212954471 24335 0 171000 839.70 0.00 1.03 0.00 183.20 266.50 0.9300 -0.4800 993.60 0.000 -0.030 0.010 19.20 0.000 47.9481773 -97.1721802 109.100 109.100 47.9 21.550 21.490 1.820 60.34 77.230 220.50 218.45 213.00 219.11 1064.54 1033.35 1021.67 1036.42 27.90 27.90 3.20 0.20
 212954472 24335 0 172000 840.80 0.00 0.04 0.00 183.20 266.50 0.9600 -0.4700 995.50 0.000 0.000 0.000 19.20 0.000 47.9481773 -97.1721802 109.100 109.100 47.9 21.600 21.490 1.790 60.38 77.280 220.97 218.80 213.38 219.46 1064.65 1033.95 1021.54 1035.78 27.90 27.90 3.20 0.30
 212954473 24335 0 173000 840.90 0.00 0.00 0.00 183.20 266.50 0.9600 -0.4900 999.40 0.000 0.010 0.010 19.20 0.000 47.9481773 -97.1721802 109.100 109.100 47.9 21.600 21.490 1.790 60.41 77.330 221.45 219.22 213.75 219.83 1065.35 1034.56 1021.85 1034.91 27.90 27.90 3.20 0.20
 212954474 24335 0 174000 841.10 0.00 -2.74 0.00 183.10 266.50 0.9700 -0.4900 995.90 0.000 0.000 0.000 19.20 0.000 47.9481773 -97.1721802 109.100 109.100 47.9 21.600 21.490 1.780 60.35 77.380 221.98 219.57 214.11 220.21 1066.54 1034.31 1023.52 1035.12 28.00 28.00 3.20 0.20
 212954475 24335 0 175000 841.10 0.00 6.38 0.00 183.20 266.50 0.9800 -0.4900 996.70 0.000 0.010 0.010 19.20 0.000 47.9481773 -97.1721802 109.100 109.100 47.9 21.600 21.490 1.760 60.37 77.420 222.33 219.92 214.53 220.61 1067.26 1034.82 1024.57 1035.59 28.00 28.00 3.20 0.20
 212954476 24335 0 176000 841.20 0.00 17.86 0.00 183.20 266.50 0.9700 -0.4900 1001.50 0.000 -0.010 0.020 19.20 0.000 47.9481773 -97.1721802 109.100 109.100 47.9 21.550 21.490 1.790 60.41 77.470 222.90 220.33 214.98 221.06 1067.70 1033.98 1024.53 1035.89 28.00 28.00 3.20 0.20
 212954477 24335 0 177000 841.30 0.00 21.24 0.00 183.20 266.50 0.9400 -0.4900 999.90 0.000 -0.010 0.010 19.20 0.000 47.9481773 -97.1721802 109.100 109.100 47.9 21.600 21.440 1.740 60.44 77.520 223.23 220.60 215.25 221.32 1068.42 1033.94 1024.10 1035.75 28.00 28.00 3.20 0.20
 212954478 24335 0 178000 840.00 0.00 15.19 0.00 183.20 266.50 0.9400 -0.4800 998.70 0.000 0.000 0.010 19.20 0.000 47.9481773 -97.1721802 109.100 109.100 47.9 21.600 21.490 1.750 60.40 77.570 223.67 220.95 215.59 221.65 1069.04 1033.80 1024.30 1034.88 28.00 28.00 3.20 0.20
 212954479 24335 0 179000 840.20 0.00 3.32 0.00 183.20 266.50 0.9700 -0.5100 997.50 0.000 0.000 0.020 19.20 0.000 47.9481773 -97.1721802 109.100 109.100 47.9 21.550 21.490 1.830 60.33 77.620 224.08 221.30 215.98 222.04 1069.44 1034.45 1025.42 1034.08 28.00 28.00 3.20 0.20
 212954480 24335 0 180000 840.10 0.00 -11.30 0.00 183.20 266.50 0.9700 -0.5200 995.50 0.000 0.000 0.010 19.20 0.000 47.9481773 -97.1721802 109.100 109.100 47.9 21.550 21.490 1.800 60.33 77.670 224.58 221.70 216.33 222.37 1069.45 1034.44 1026.56 1033.99 28.00 28.00 3.20 0.20
 212954481 24335 0 181000 840.00 0.00 -3.35 0.00 183.20 266.50 0.9700 -0.4700 993.70 0.000 0.000 0.020 19.20 0.000 47.9481773 -97.1721802 109.100 109.100 47.9 21.550 21.490 1.800 60.28 77.720 224.95 222.01 216.70 222.74 1070.10 1034.28 1027.59 1033.84 28.00 28.00 3.20 0.20
 212954482 24335 0 182000 839.90 0.00 -20.77 0.00 183.20 266.50 0.9700 -0.4800 991.90 0.000 0.010 0.000 19.20 0.000 47.9481773 -97.1721802 109.100 109.100 47.9 21.550 21.490 1.760 60.24 77.760 225.39 222.36 217.07 223.09 1071.42 1035.07 1028.67 1034.75 27.90 27.90 3.10 0.20
 212954483 24335 0 183000 839.90 0.00 -12.25 0.00 183.20 266.50 0.9700 -0.4600 996.50 0.000 -0.010 0.000 19.20 0.000 47.9481773 -97.1721802 109.100 109.100 47.9 21.470 21.440 1.820 60.27 77.810 225.85 222.67 217.40 223.45 1072.64 1035.38 1030.49 1035.73 27.90 27.90 3.10 0.20
 212954484 24335 0 184000 841.10 0.00 -2.45 0.00 183.20 266.50 0.9600 -0.4700 993.10 0.000 0.000 0.020 19.20 0.000 47.9481773 -97.1721802 109.100 109.100 47.9 21.470 21.440 1.820 60.25 77.860 226.24 223.02 217.77 223.77 1074.05 1036.81 1031.48 1036.05 27.90 27.90 3.20 0.20
 212954485 24335 0 185000 840.60 0.00 14.29 0.00 183.20 266.50 0.9800 -0.4700 993.90 0.000 0.010 0.000 19.20 0.000 47.9481773 -97.1721802 109.100 109.100 47.9 21.470 21.440 1.790 60.25 77.910 226.69 223.37 218.13 224.13 1075.90 1036.48 1031.66 1036.99 28.00 28.00 3.30 0.20
 212954486 24335 0 186000 840.60 0.00 2.91 0.00 183.20 266.50 1.0000 -0.4400 996.90 0.000 0.010 0.010 19.20 0.000 47.9481773 -97.1721802 109.100 109.100 47.9 21.470 21.440 1.790 60.29 77.960 227.16 223.80 218.50 224.47 1075.70 1037.95 1030.68 1036.70 27.90 27.90 3.20 0.20
 212954487 24335 0 187000 840.70 0.00 -8.65 0.00 183.20 266.50 0.9800 -0.4500 996.30 0.000 0.000 0.000 19.20 0.000 47.9481773 -97.1721802 109.100 109.100 47.9 21.470 21.440 1.740 60.30 78.010 227.60 224.15 218.93 224.92 1075.14 1038.99 1029.10 1035.76 27.90 27.90 3.20 0.20
 212954488 24335 0 188000 840.60 0.00 -0.97 0.00 183.20 266.50 0.9800 -0.4700 993.30 0.000 0.000 0.010 19.20 0.000 47.9481773 -97.1721802 109.100 109.100 47.9 21.550 21.440 1.800 60.23 78.060 228.03 224.48 219.27 225.23 1074.67 1040.68 1029.71 1034.97 27.90 27.90 3.20 0.20
 212954489 24335 0 189000 840.60 0.00 14.38 0.00 183.20 266.50 0.9800 -0.4800 992.20 0.000 0.010 0.010 19.20 0.000 47.9481773 -97.1721802 109.100 109.100 47.9 21.550 21.440 1.830 60.19 78.110 228.35 224.72 219.51 225.48 1073.85 1042.95 1030.19 1034.89 28.00 28.00 3.20 0.20
 212954490 24335 0 190000 839.00 0.00 12.33 0.00 183.20 266.50 0.9800 -0.4500 993.70 0.000 0.000 0.010 19.20 0.000 47.9481773 -97.1721802 109.100 109.100 47.9 21.550 21.440 1.790 60.17 78.160 228.74 225.07 219.84 225.81 1073.09 1044.39 1029.90 1034.67 28.00 28.00 3.20 0.20
 212954491 24335 0 191000 839.40 0.00 11.48 0.00 183.20 266.50 1.0000 -0.4600 995.90 0.000 0.010 0.010 19.20 0.000 47.9481773 -97.1721802 109.100 109.100 47.9 21.470 21.440 1.830 60.26 78.210 229.14 225.41 220.20 226.17 1072.25 1044.59 1029.51 1035.19 28.00 28.00 3.20 0.20
 212954492 24335 0 192000 839.20 0.00 14.99 0.00 183.20 266.50 1.0000 -0.4600 996.00 0.000 0.000 0.010 19.20 0.000 47.9481773 -97.1721802 109.100 109.100 47.9 21.470 21.440 1.810 60.28 78.260 229.68 225.86 220.60 226.55 1071.90 1044.28 1030.84 1034.59 27.90 28.00 3.10 0.20
 212954493 24335 0 193000 839.20 0.00 0.36 0.00 183.30 266.50 0.9900 -0.4700 996.50 0.000 -0.020 0.010 19.00 0.000 47.9481773 -97.1721802 109.100 109.100 47.9 21.470 21.440 1.820 60.20 78.300 229.98 226.07 220.88 226.80 1070.84 1043.52 1031.05 1034.10 27.90 27.90 3.10 0.20
 212954494 24335 0 194000 839.10 0.00 17.66 0.00 183.30 266.50 0.9900 -0.4700 996.60 0.000 0.000 0.010 19.00 0.000 47.9481773 -97.1721802 109.100 109.100 47.9 21.470 21.490 1.780 60.27 78.350 230.43 226.52 221.31 227.22 1070.12 1043.67 1031.00 1033.80 28.00 28.00 3.20 0.20
 212954495 24335 0 195000 839.00 0.00 16.25 0.00 183.30 266.50 0.9600 -0.5100 994.10 0.000 -0.010 0.000 19.00 0.000 47.9481773 -97.1721802 109.100 109.100 47.9 21.470 21.440 1.750 60.20 78.400 230.86 226.83 221.65 227.53 1069.46 1043.42 1030.70 1033.38 28.00 28.00 3.20 0.20
 212954496 24335 0 196000 840.30 0.00 15.99 0.00 183.30 266.50 0.9800 -0.4700 996.10 0.000 0.020 0.020 19.00 0.000 47.9481773 -97.1721802 109.100 109.100 47.9 21.470 21.440 1.820 60.22 78.460 231.25 227.16 221.94 227.86 1070.15 1044.18 1029.13 1033.91 27.90 27.90 3.20 0.20
 212954497 24335 0 197000 840.00 0.00 13.03 0.00 183.30 266.50 0.9900 -0.5100 996.20 0.000 0.000 0.010 19.00 0.000 47.9481773 -97.1721802 109.100 109.100 47.9 21.470 21.440 1.830 60.23 78.500 231.51 227.36 222.18 228.05 1069.26 1044.56 1029.00 1034.09 28.00 28.00 3.30 0.20
 212954498 24335 0 198000 840.30 0.00 2.46 0.00 183.30 266.50 0.9800 -0.5100 995.90 0.000 -0.030 0.010 19.00 0.000 47.9481773 -97.1721802 109.100 109.100 47.9 21.470 21.440 1.770 60.24 78.550 231.88 227.68 222.49 228.39 1068.40 1045.80 1028.30 1033.62 28.00 28.00 3.20 0.20
 212954499 24335 0 199000 840.40 0.00 -6.22 0.00 183.30 266.50 0.9900 -0.4800 993.30 0.000 0.020 0.010 19.00 0.000 47.9481773 -97.1721802 109.100 109.100 47.9 21.470 21.440 1.800 60.17 78.610 232.39 228.09 222.88 228.79 1068.87 1047.37 1028.98 1033.86 27.90 28.00 3.20 0.20
 212954500 24335 0 200000 840.40 0.00 -16.41 0.00 183.30 266.50 1.0100 -0.4700 997.80 0.000 -0.010 0.010 19.00 0.000 47.9481773 -97.1721802 109.100 109.100 47.9 21.470 21.440 1.820 60.23 78.650 232.64 228.35 223.15 229.01 1069.88 1048.71 1028.54 1034.79 28.00 28.00 3.20 0.20
 212954501 24335 0 201000 840.50 0.00 -8.59 0.00 183.30 266.50 1.0100 -0.5100 993.90 0.000 0.000 0.010 19.00 0.000 47.9481773 -97.1721802 109.100 109.100 47.9 21.470 21.440 1.770 60.18 78.710 233.15 228.78 223.59 229.42 1071.81 1048.78 1028.80 1035.58 28.00 28.00 3.20 0.20
 212954502 24335 0 202000 838.90 0.00 -3.55 0.00 183.30 266.50 1.0100 -0.4900 995.70 0.000 0.000 0.000 19.00 0.000 47.9481773 -97.1721802 109.100 109.100 47.9 21.470 21.440 1.780 60.22 78.750 233.52 229.09 223.89 229.74 1073.60 1048.40 1029.40 1036.52 28.00 28.00 3.20 0.20
 212954503 24335 0 203000 839.20 0.00 12.91 0.00 183.30 266.50 1.0200 -0.5100 996.70 0.000 0.010 0.030 19.00 0.000 47.9481773 -97.1721802 109.100 109.100 47.9 21.470 21.490 1.750 60.17 78.810 233.91 229.37 224.17 230.03 1073.75 1047.80 1028.85 1036.83 28.00 28.00 3.20 0.20
 212954504 24335 0 204000 838.90 0.00 8.81 0.00 183.30 266.50 1.0000 -0.5100 992.90 0.000 0.000 0.000 19.00 0.000 47.9481773 -97.1721802 109.100 109.100 47.9 21.470 21.490 1.790 60.12 78.860 234.27 229.69 224.53 230.34 1073.82 1048.49 1029.00 1037.22 28.00 28.00 3.20 0.20
 212954505 24335 0 205000 838.70 0.00 15.58 0.00 183.30 266.50 1.0000 -0.4800 997.50 0.000 0.010 0.020 19.00 0.000 47.9481773 -97.1721802 109.100 109.100 47.9 21.470 21.490 1.800 60.26 78.910 234.68 230.05 224.81 230.61 1074.50 1048.21 1028.16 1037.69 28.00 28.00 3.20 0.20
 212954506 24335 0 206000 838.70 0.00 6.43 0.00 183.30 266.50 0.9900 -0.4900 1002.10 0.000 0.000 0.010 19.00 0.000 47.9481773 -97.1721802 109.100 109.100 47.9 21.550 21.490 1.770 60.29 78.960 234.99 230.31 225.12 230.95 1073.79 1047.87 1027.15 1036.86 28.00 28.00 3.20 0.20
 212954507 24335 0 207000 838.70 0.00 9.32 0.00 183.30 266.50 1.0100 -0.4900 998.40 0.000 -0.010 0.010 19.00 0.000 47.9481773 -97.1721802 109.100 109.100 47.9 21.550 21.490 1.750 60.22 79.010 235.37 230.62 225.42 231.21 1073.74 1049.36 1028.33 1036.48 28.00 28.00 3.20 0.20
 212954508 24335 0 208000 840.00 0.00 11.32 0.00 183.30 266.50 1.0100 -0.5200 998.80 0.000 -0.020 0.010 19.00 0.000 47.9481773 -97.1721802 109.100 109.100 47.9 21.470 21.490 1.750 60.27 79.060 235.62 230.83 225.62 231.44 1073.46 1050.82 1028.64 1036.61 28.00 28.00 3.20 0.20
 212954509 24335 0 209000 840.00 0.00 -0.95 0.00 183.30 266.50 1.0000 -0.4900 999.00 0.000 0.000 0.010 18.80 0.000 47.9481773 -97.1721802 109.100 109.100 47.9 21.470 21.490 1.760 60.19 79.110 236.06 231.22 226.01 231.79 1073.61 1051.96 1028.48 1037.73 28.00 28.00 3.20 0.20
 212954510 24335 0 210000 840.20 0.00 -7.03 0.00 183.40 266.50 0.9900 -0.4800 993.60 0.000 -0.010 0.020 18.80 0.000 47.9481773 -97.1721802 109.100 109.100 47.9 21.470 21.490 1.800 60.10 79.160 236.30 231.46 226.27 232.02 1074.30 1052.48 1028.53 1038.36 28.00 28.00 3.20 0.20
 212954511 24335 0 211000 840.30 0.00 -2.94 0.00 183.30 266.50 1.0300 -0.5100 993.80 0.000 0.010 0.020 18.80 0.000 47.9481773 -97.1721802 109.100 109.100 47.9 21.470 21.490 1.790 60.11 79.210 236.77 231.85 226.63 232.40 1074.24 1052.52 1028.79 1038.97 28.00 28.00 3.20 0.20
 212954512 24335 0 212000 840.50 0.00 2.45 0.00 183.30 266.50 1.0000 -0.5100 997.40 0.000 -0.010 0.000 18.80 0.000 47.9481773 -97.1721802 109.100 109.100 47.9 21.470 21.490 1.740 60.19 79.260 237.12 232.15 226.95 232.73 1073.14 1051.97 1029.23 1038.62 28.00 28.00 3.20 0.20
